[{"lat":48.712,"lon":2.371,"brand":"Carrefour","adresse":"180 ROUTE NATIONALE 7, 91200 Paray-Vieille-Poste","gazole_maj":"2024-02-28T14:32:00+01:00","gazole_prix":1.809,"sp95_maj":"2024-02-28T14:32:00+01:00","sp95_prix":1.858,"e85_maj":"2024-02-28T14:32:00+01:00","e85_prix":0.982,"gplc_maj":null,"gplc_prix":null,"e10_maj":"2024-02-28T14:32:00+01:00","e10_prix":1.819,"sp98_maj":"2024-02-28T14:32:00+01:00","sp98_prix":1.892,"pop":"R"},{"lat":43.3412,"lon":5.4568,"brand":"Esso Express","adresse":"89 AVENUE DE LA LIBERATION, 13380 Plan-de-Cuques","gazole_maj":"2024-02-27T08:01:00+01:00","gazole_prix":1.787,"sp95_maj":null,"sp95_prix":null,"e85_maj":"2024-02-27T08:01:00+01:00","e85_prix":0.899,"gplc_maj":null,"gplc_prix":null,"e10_maj":"2024-02-27T08:01:00+01:00","e10_prix":1.799,"sp98_maj":"2024-02-27T08:01:00+01:00","sp98_prix":1.879,"pop":"R"},{"lat":43.549,"lon":3.782,"brand":"Intermarch\u00e9","adresse":"RD 613, 34690 Fabr\u00e8gues","gazole_maj":"2024-02-29T08:30:00+01:00","gazole_prix":1.784,"sp95_maj":null,"sp95_prix":null,"e85_maj":"2024-02-29T08:30:00+01:00","e85_prix":0.848,"gplc_maj":"2024-02-29T08:30:00+01:00","gplc_prix":0.998,"e10_maj":"2024-02-29T08:30:00+01:00","e10_prix":1.849,"sp98_maj":"2024-02-29T08:30:00+01:00","sp98_prix":1.938,"pop":"R"},{"lat":45.942,"lon":6.149,"brand":"Total","adresse":"STATION TOTAL RN.203, 74370 Argonay","gazole_maj":"2024-02-29T08:07:27+01:00","gazole_prix":1.894,"sp95_maj":null,"sp95_prix":null,"e85_maj":null,"e85_prix":null,"gplc_maj":null,"gplc_prix":null,"e10_maj":"2024-02-29T08:07:27+01:00","e10_prix":1.933,"sp98_maj":"2024-02-29T08:07:28+01:00","sp98_prix":1.99,"pop":"R"},{"lat":44.0515,"lon":5.0412,"brand":"Leclerc","adresse":"Boulevard Naquet, 84200 Carpentras","gazole_maj":"2024-02-29T08:09:24+01:00","gazole_prix":1.779,"sp95_maj":"2024-02-26T06:40:21+01:00","sp95_prix":1.869,"e85_maj":"2024-02-29T08:09:25+01:00","e85_prix":0.869,"gplc_maj":null,"gplc_prix":null,"e10_maj":"2024-02-24T06:35:03+01:00","e10_prix":1.809,"sp98_maj":null,"sp98_prix":null,"pop":"R"},{"lat":48.5145,"lon":-2.6667,"brand":null,"adresse":"RN 12 LA VILLE CARIO, 22120 Hillion","gazole_maj":"2024-02-28T08:00:00+01:00","gazole_prix":1.931,"sp95_maj":null,"sp95_prix":null,"e85_maj":"2024-02-28T08:00:00+01:00","e85_prix":0.981,"gplc_maj":"2024-02-28T08:00:00+01:00","gplc_prix":1.017,"e10_maj":"2024-02-28T08:00:00+01:00","e10_prix":1.975,"sp98_maj":"2024-02-28T08:00:00+01:00","sp98_prix":2.042,"pop":"R"},{"lat":49.305,"lon":-1.156,"brand":"Esso","adresse":"ROUTE NATIONALE 13, 50500 Carentan-les-Marais","gazole_maj":"2024-02-28T12:08:00+01:00","gazole_prix":1.854,"sp95_maj":null,"sp95_prix":null,"e85_maj":null,"e85_prix":null,"gplc_maj":null,"gplc_prix":null,"e10_maj":"2024-02-28T12:08:00+01:00","e10_prix":1.879,"sp98_maj":"2024-02-28T12:08:00+01:00","sp98_prix":1.969,"pop":"R"},{"lat":46.607,"lon":-1.664,"brand":"Syst\u00e8me U","adresse":"1 rue des Bl\u00e9s, La Mothe Achard, 85150 Les Achards","gazole_maj":"2024-02-28T08:35:04+01:00","gazole_prix":1.736,"sp95_maj":null,"sp95_prix":null,"e85_maj":"2024-02-17T20:22:00+01:00","e85_prix":0.867,"gplc_maj":null,"gplc_prix":null,"e10_maj":"2024-02-26T09:57:19+01:00","e10_prix":1.753,"sp98_maj":"2024-02-26T09:57:19+01:00","sp98_prix":1.833,"pop":"R"},{"lat":49.174,"lon":6.918,"brand":null,"adresse":"655 Rue de Sarreguemines, 57600 \u0152ting","gazole_maj":"2024-02-27T08:01:00+01:00","gazole_prix":1.818,"sp95_maj":null,"sp95_prix":null,"e85_maj":null,"e85_prix":null,"gplc_maj":null,"gplc_prix":null,"e10_maj":"2024-02-27T08:01:00+01:00","e10_prix":1.81,"sp98_maj":"2024-02-27T08:01:00+01:00","sp98_prix":1.89,"pop":"R"},{"lat":44.74,"lon":1.391,"brand":null,"adresse":"9 BOULEVARD DE LA MADELEINE, 46300 Gourdon","gazole_maj":"2024-02-29T08:39:42+01:00","gazole_prix":1.891,"sp95_maj":null,"sp95_prix":null,"e85_maj":null,"e85_prix":null,"gplc_maj":null,"gplc_prix":null,"e10_maj":"2024-02-29T08:39:42+01:00","e10_prix":1.913,"sp98_maj":"2024-02-29T08:39:42+01:00","sp98_prix":1.99,"pop":"R"},{"lat":43.399,"lon":5.041,"brand":null,"adresse":"ROUTE DE LAVERA, 13500 Martigues","gazole_maj":"2024-02-29T01:01:00+01:00","gazole_prix":1.871,"sp95_maj":null,"sp95_prix":null,"e85_maj":null,"e85_prix":null,"gplc_maj":null,"gplc_prix":null,"e10_maj":"2024-02-29T01:01:00+01:00","e10_prix":1.913,"sp98_maj":"2024-02-29T01:01:00+01:00","sp98_prix":1.99,"pop":"R"},{"lat":43.4176,"lon":5.2336,"brand":"Casino","adresse":"ZAC DE LA LAUVE, 13730 Saint-Victoret","gazole_maj":"2024-02-29T09:09:16+01:00","gazole_prix":1.727,"sp95_maj":null,"sp95_prix":null,"e85_maj":null,"e85_prix":null,"gplc_maj":null,"gplc_prix":null,"e10_maj":"2024-02-29T09:09:16+01:00","e10_prix":1.76,"sp98_maj":"2024-02-29T09:09:17+01:00","sp98_prix":1.85,"pop":"R"},{"lat":46.5177,"lon":-1.7758,"brand":null,"adresse":"144 Avenue Fran\u00e7ois Mitterrand, 85340 Les Sables-d'Olonne","gazole_maj":"2024-02-29T09:07:25+01:00","gazole_prix":1.862,"sp95_maj":"2024-02-15T08:34:34+01:00","sp95_prix":1.913,"e85_maj":null,"e85_prix":null,"gplc_maj":"2024-02-15T08:34:35+01:00","gplc_prix":1.029,"e10_maj":null,"e10_prix":null,"sp98_maj":null,"sp98_prix":null,"pop":"R"},{"lat":48.858,"lon":-0.893,"brand":"Total","adresse":"RTE DE CAEN, 14500 Vire Normandie","gazole_maj":"2024-02-28T08:30:58+01:00","gazole_prix":1.864,"sp95_maj":null,"sp95_prix":null,"e85_maj":null,"e85_prix":null,"gplc_maj":"2024-02-28T08:30:58+01:00","gplc_prix":0.92,"e10_maj":"2024-02-28T08:30:58+01:00","e10_prix":1.895,"sp98_maj":"2024-02-28T08:30:58+01:00","sp98_prix":1.99,"pop":"R"},{"lat":48.8567,"lon":2.3791,"brand":"Elan","adresse":"175 Avenue Ledru-Rollin, 75011 Paris","gazole_maj":"2023-12-18T20:58:44+01:00","gazole_prix":1.99,"sp95_maj":"2023-12-20T20:55:00+01:00","sp95_prix":1.99,"e85_maj":null,"e85_prix":null,"gplc_maj":null,"gplc_prix":null,"e10_maj":null,"e10_prix":null,"sp98_maj":null,"sp98_prix":null,"pop":"R"},{"lat":44.7574,"lon":0.4111,"brand":null,"adresse":"18 place de l'ancien temple, 24240 Sigoul\u00e8s-et-Flaugeac","gazole_maj":"2024-02-16T09:11:34+01:00","gazole_prix":1.809,"sp95_maj":"2024-02-16T09:11:35+01:00","sp95_prix":1.839,"e85_maj":null,"e85_prix":null,"gplc_maj":null,"gplc_prix":null,"e10_maj":null,"e10_prix":null,"sp98_maj":"2024-02-16T09:11:35+01:00","sp98_prix":1.899,"pop":"R"},{"lat":43.2855,"lon":0.6509,"brand":null,"adresse":"avenue Charles Suran, 31350 Boulogne-sur-Gesse","gazole_maj":"2024-02-29T00:50:00+01:00","gazole_prix":1.839,"sp95_maj":null,"sp95_prix":null,"e85_maj":"2024-02-29T00:50:00+01:00","e85_prix":0.981,"gplc_maj":null,"gplc_prix":null,"e10_maj":"2024-02-29T00:50:00+01:00","e10_prix":1.898,"sp98_maj":null,"sp98_prix":null,"pop":"R"},{"lat":43.4381,"lon":6.7191,"brand":null,"adresse":"100 RDN 7 AV.DE VERDUN, 83600 Fr\u00e9jus","gazole_maj":"2024-02-29T01:01:00+01:00","gazole_prix":1.86,"sp95_maj":null,"sp95_prix":null,"e85_maj":"2024-02-29T01:01:00+01:00","e85_prix":0.919,"gplc_maj":"2024-02-29T01:01:00+01:00","gplc_prix":0.999,"e10_maj":"2024-02-29T01:01:00+01:00","e10_prix":1.896,"sp98_maj":"2024-02-29T01:01:00+01:00","sp98_prix":1.99,"pop":"R"},{"lat":48.8689,"lon":2.4705,"brand":null,"adresse":"48-54 BOULEVARD THEOPHILE SUEUR, 93100 Montreuil","gazole_maj":"2024-02-29T01:01:00+01:00","gazole_prix":1.892,"sp95_maj":null,"sp95_prix":null,"e85_maj":"2024-02-29T01:01:00+01:00","e85_prix":0.899,"gplc_maj":null,"gplc_prix":null,"e10_maj":"2024-02-29T01:01:00+01:00","e10_prix":1.895,"sp98_maj":"2024-02-29T01:01:00+01:00","sp98_prix":1.976,"pop":"R"},{"lat":43.935,"lon":-0.062,"brand":"Intermarch\u00e9","adresse":"Rue Cousin\u00e9, 32150 Cazaubon","gazole_maj":"2024-02-16T10:00:00+01:00","gazole_prix":1.798,"sp95_maj":null,"sp95_prix":null,"e85_maj":null,"e85_prix":null,"gplc_maj":null,"gplc_prix":null,"e10_maj":"2024-02-16T10:00:00+01:00","e10_prix":1.819,"sp98_maj":"2024-02-16T10:00:00+01:00","sp98_prix":1.868,"pop":"R"},{"lat":48.389,"lon":-4.528,"brand":"Carrefour","adresse":"126 Boulevard de Plymouth, 29200 Brest","gazole_maj":"2024-02-29T09:45:00+01:00","gazole_prix":1.766,"sp95_maj":"2024-02-29T09:45:00+01:00","sp95_prix":1.841,"e85_maj":null,"e85_prix":null,"gplc_maj":null,"gplc_prix":null,"e10_maj":"2024-02-29T09:45:00+01:00","e10_prix":1.775,"sp98_maj":"2024-02-29T09:45:00+01:00","sp98_prix":1.914,"pop":"R"},{"lat":46.7655,"lon":-1.5048,"brand":null,"adresse":"2 RUE DE LA BRACHETIERE, 85170 Le Poir\u00e9-sur-Vie","gazole_maj":"2024-02-16T11:13:04+01:00","gazole_prix":1.769,"sp95_maj":null,"sp95_prix":null,"e85_maj":null,"e85_prix":null,"gplc_maj":null,"gplc_prix":null,"e10_maj":"2024-02-16T11:13:05+01:00","e10_prix":1.757,"sp98_maj":"2024-02-16T11:13:05+01:00","sp98_prix":1.825,"pop":"R"},{"lat":46.956,"lon":4.295,"brand":null,"adresse":"15, AVENUE DE LA REPUBLIQUE, 71400 Autun","gazole_maj":"2024-02-29T01:01:00+01:00","gazole_prix":1.794,"sp95_maj":null,"sp95_prix":null,"e85_maj":"2024-02-29T01:01:00+01:00","e85_prix":0.899,"gplc_maj":null,"gplc_prix":null,"e10_maj":"2024-02-29T01:01:00+01:00","e10_prix":1.832,"sp98_maj":"2024-02-29T01:01:00+01:00","sp98_prix":1.928,"pop":"R"},{"lat":43.2951,"lon":5.4445,"brand":"G\u00e9ant","adresse":"Avenue William Booth, 13012 Marseille","gazole_maj":"2024-02-29T08:49:11+01:00","gazole_prix":1.73,"sp95_maj":null,"sp95_prix":null,"e85_maj":null,"e85_prix":null,"gplc_maj":null,"gplc_prix":null,"e10_maj":"2024-02-29T08:49:12+01:00","e10_prix":1.763,"sp98_maj":"2024-02-29T08:49:12+01:00","sp98_prix":1.853,"pop":"R"},{"lat":43.3923,"lon":5.2569,"brand":"Agip","adresse":"AIRE DE REBUTY A55, 13180 Le Rove","gazole_maj":"2024-02-29T23:00:00+01:00","gazole_prix":2.029,"sp95_maj":null,"sp95_prix":null,"e85_maj":"2024-02-29T23:00:00+01:00","e85_prix":1.029,"gplc_maj":"2024-02-29T23:00:00+01:00","gplc_prix":1.149,"e10_maj":"2024-02-29T23:00:00+01:00","e10_prix":2.069,"sp98_maj":"2024-02-29T23:00:00+01:00","sp98_prix":2.169,"pop":"A"},{"lat":46.5598,"lon":-1.0606,"brand":"Super Casino","adresse":"Route de Nantes, 85210 Sainte-Hermine","gazole_maj":"2024-02-28T09:19:26+01:00","gazole_prix":1.764,"sp95_maj":null,"sp95_prix":null,"e85_maj":null,"e85_prix":null,"gplc_maj":null,"gplc_prix":null,"e10_maj":"2024-02-28T09:19:27+01:00","e10_prix":1.741,"sp98_maj":"2024-02-28T09:19:27+01:00","sp98_prix":1.818,"pop":"R"},{"lat":47.5956,"lon":1.3011,"brand":null,"adresse":"1 rue Duguay Trouin, 41000 Blois","gazole_maj":"2024-02-26T09:38:47+01:00","gazole_prix":1.799,"sp95_maj":"2024-02-26T09:38:47+01:00","sp95_prix":1.839,"e85_maj":null,"e85_prix":null,"gplc_maj":null,"gplc_prix":null,"e10_maj":null,"e10_prix":null,"sp98_maj":"2024-02-23T10:39:12+01:00","sp98_prix":1.895,"pop":"R"},{"lat":47.353,"lon":1.744,"brand":"Ind\u00e9pendant sans enseigne","adresse":"4 Avenue de Villefranche, 41200 Romorantin-Lanthenay","gazole_maj":"2024-02-29T08:30:26+01:00","gazole_prix":1.878,"sp95_maj":"2024-02-29T08:30:26+01:00","sp95_prix":1.926,"e85_maj":null,"e85_prix":null,"gplc_maj":null,"gplc_prix":null,"e10_maj":null,"e10_prix":null,"sp98_maj":null,"sp98_prix":null,"pop":"R"},{"lat":48.648,"lon":2.189,"brand":null,"adresse":"VOIE EXP F6 LIEUDIT BEAUVERT, 91460 Marcoussis","gazole_maj":"2024-02-29T14:30:00+01:00","gazole_prix":1.859,"sp95_maj":null,"sp95_prix":null,"e85_maj":null,"e85_prix":null,"gplc_maj":null,"gplc_prix":null,"e10_maj":"2024-02-20T16:35:00+01:00","e10_prix":1.899,"sp98_maj":"2024-02-20T16:35:00+01:00","sp98_prix":2.019,"pop":"A"},{"lat":46.724,"lon":2.461,"brand":"Bricomarch\u00e9","adresse":"Z.A. les Noix Brul\u00e9es, 18200 Orval","gazole_maj":"2024-02-27T10:00:00+01:00","gazole_prix":1.805,"sp95_maj":null,"sp95_prix":null,"e85_maj":"2024-01-03T10:57:20+01:00","e85_prix":0.848,"gplc_maj":null,"gplc_prix":null,"e10_maj":"2024-02-19T10:15:00+01:00","e10_prix":1.829,"sp98_maj":null,"sp98_prix":null,"pop":"R"},{"lat":43.322,"lon":3.291,"brand":"Carrefour Market","adresse":"Ancienne Route de S\u00e9rignan, 34420 Villeneuve-l\u00e8s-B\u00e9ziers","gazole_maj":"2024-02-29T11:33:56+01:00","gazole_prix":1.725,"sp95_maj":"2024-02-23T11:58:26+01:00","sp95_prix":1.825,"e85_maj":null,"e85_prix":null,"gplc_maj":null,"gplc_prix":null,"e10_maj":null,"e10_prix":null,"sp98_maj":"2024-02-23T11:58:26+01:00","sp98_prix":1.879,"pop":"R"},{"lat":48.075,"lon":6.884,"brand":null,"adresse":"68 BOULEVARD KELSCH, 88400 G\u00e9rardmer","gazole_maj":"2024-02-29T01:01:00+01:00","gazole_prix":1.799,"sp95_maj":null,"sp95_prix":null,"e85_maj":null,"e85_prix":null,"gplc_maj":"2024-02-29T01:01:00+01:00","gplc_prix":0.954,"e10_maj":"2024-02-29T01:01:00+01:00","e10_prix":1.801,"sp98_maj":"2024-02-29T01:01:00+01:00","sp98_prix":1.886,"pop":"R"},{"lat":43.4193,"lon":5.2233,"brand":null,"adresse":"24 AVENUE DU MARECHAL JUIN, 13700 Marignane","gazole_maj":"2024-02-29T11:40:40+01:00","gazole_prix":1.775,"sp95_maj":null,"sp95_prix":null,"e85_maj":null,"e85_prix":null,"gplc_maj":null,"gplc_prix":null,"e10_maj":"2024-02-29T11:40:41+01:00","e10_prix":1.819,"sp98_maj":"2024-02-29T11:40:41+01:00","sp98_prix":1.892,"pop":"R"},{"lat":48.4859,"lon":3.4912,"brand":"Intermarch\u00e9","adresse":"47 Route de Bray, 10400 Nogent-sur-Seine","gazole_maj":"2024-02-27T10:29:33+01:00","gazole_prix":1.759,"sp95_maj":"2024-02-27T10:29:34+01:00","sp95_prix":1.819,"e85_maj":null,"e85_prix":null,"gplc_maj":null,"gplc_prix":null,"e10_maj":"2024-02-27T10:29:34+01:00","e10_prix":1.775,"sp98_maj":"2024-02-13T08:07:31+01:00","sp98_prix":1.869,"pop":"R"},{"lat":49.45,"lon":1.028,"brand":"Intermarch\u00e9","adresse":"Rue du Commandant Georges Ledru, 76380 Canteleu","gazole_maj":"2024-02-22T10:18:14+01:00","gazole_prix":1.768,"sp95_maj":null,"sp95_prix":null,"e85_maj":"2024-02-22T10:18:14+01:00","e85_prix":0.848,"gplc_maj":null,"gplc_prix":null,"e10_maj":"2024-02-26T17:35:08+01:00","e10_prix":1.796,"sp98_maj":"2024-02-29T17:32:39+01:00","sp98_prix":1.872,"pop":"R"},{"lat":45.7177,"lon":4.8731,"brand":"Carrefour","adresse":"BD JOLIOT CURIE, 69200 V\u00e9nissieux","gazole_maj":"2024-02-29T08:57:00+01:00","gazole_prix":1.819,"sp95_maj":"2024-02-29T08:57:00+01:00","sp95_prix":1.91,"e85_maj":null,"e85_prix":null,"gplc_maj":"2024-02-29T08:57:00+01:00","gplc_prix":0.931,"e10_maj":"2024-02-29T08:57:00+01:00","e10_prix":1.867,"sp98_maj":"2024-02-29T08:57:00+01:00","sp98_prix":1.958,"pop":"R"},{"lat":47.9344,"lon":-1.6673,"brand":null,"adresse":"10 rue de Bel Air, 35320 Crevin","gazole_maj":"2024-02-16T10:13:33+01:00","gazole_prix":1.825,"sp95_maj":"2024-02-16T10:13:36+01:00","sp95_prix":1.845,"e85_maj":"2024-02-16T10:13:44+01:00","e85_prix":0.899,"gplc_maj":null,"gplc_prix":null,"e10_maj":null,"e10_prix":null,"sp98_maj":"2024-02-16T10:13:51+01:00","sp98_prix":1.875,"pop":"R"},{"lat":48.1193,"lon":-1.6038,"brand":null,"adresse":"50 rue de belle \u00e9pine et boulevard des m\u00e9tairies, 35510 Cesson-S\u00e9vign\u00e9","gazole_maj":"2024-02-27T10:16:32+01:00","gazole_prix":1.769,"sp95_maj":"2024-02-27T10:16:32+01:00","sp95_prix":1.827,"e85_maj":null,"e85_prix":null,"gplc_maj":null,"gplc_prix":null,"e10_maj":null,"e10_prix":null,"sp98_maj":"2024-02-27T10:16:32+01:00","sp98_prix":1.883,"pop":"R"},{"lat":44.881,"lon":-0.651,"brand":"Intermarch\u00e9","adresse":"170 Avenue du Taillan M\u00e9doc, 33320 Eysines","gazole_maj":"2024-02-26T09:10:50+01:00","gazole_prix":1.759,"sp95_maj":"2024-02-26T09:10:50+01:00","sp95_prix":1.825,"e85_maj":null,"e85_prix":null,"gplc_maj":null,"gplc_prix":null,"e10_maj":null,"e10_prix":null,"sp98_maj":"2024-02-26T09:10:51+01:00","sp98_prix":1.865,"pop":"R"},{"lat":47.439,"lon":0.699,"brand":"Intermarch\u00e9","adresse":"1 rue ren\u00e9 Cassin, 37390 Notre-Dame-d'O\u00e9","gazole_maj":"2024-02-23T09:54:49+01:00","gazole_prix":1.769,"sp95_maj":"2024-02-16T09:39:55+01:00","sp95_prix":1.82,"e85_maj":"2024-02-16T09:39:56+01:00","e85_prix":0.848,"gplc_maj":null,"gplc_prix":null,"e10_maj":null,"e10_prix":null,"sp98_maj":"2024-02-16T09:39:56+01:00","sp98_prix":1.859,"pop":"R"},{"lat":48.9638,"lon":3.0528,"brand":null,"adresse":"AIRE DE CHANGIS-SUR-MARNE A4, 77260 Ussy-sur-Marne","gazole_maj":"2024-02-29T01:01:00+01:00","gazole_prix":1.899,"sp95_maj":null,"sp95_prix":null,"e85_maj":"2024-02-29T01:01:00+01:00","e85_prix":1.099,"gplc_maj":"2024-02-29T01:01:00+01:00","gplc_prix":1.059,"e10_maj":"2024-02-29T01:01:00+01:00","e10_prix":1.919,"sp98_maj":"2024-02-29T01:01:00+01:00","sp98_prix":1.999,"pop":"A"},{"lat":42.6995,"lon":3.0222,"brand":"Casino","adresse":"L' Esparrou Plage, 66140 Canet-en-Roussillon","gazole_maj":"2024-02-29T10:30:24+01:00","gazole_prix":1.743,"sp95_maj":null,"sp95_prix":null,"e85_maj":null,"e85_prix":null,"gplc_maj":null,"gplc_prix":null,"e10_maj":"2024-02-29T10:30:24+01:00","e10_prix":1.771,"sp98_maj":"2024-02-29T10:30:25+01:00","sp98_prix":1.862,"pop":"R"},{"lat":45.491,"lon":4.5583,"brand":"Intermarch\u00e9","adresse":"Rue du Plat du Gier, 42152 L'Horme","gazole_maj":"2024-02-28T10:22:56+01:00","gazole_prix":1.778,"sp95_maj":null,"sp95_prix":null,"e85_maj":"2024-01-05T08:10:20+01:00","e85_prix":0.848,"gplc_maj":null,"gplc_prix":null,"e10_maj":"2024-02-22T10:45:15+01:00","e10_prix":1.829,"sp98_maj":"2024-02-24T20:06:12+01:00","sp98_prix":1.909,"pop":"R"},{"lat":46.65,"lon":-0.753,"brand":null,"adresse":"7 RUE DE LA GARENNE, 85120 La Ch\u00e2taigneraie","gazole_maj":"2024-02-28T09:51:25+01:00","gazole_prix":1.755,"sp95_maj":"2024-02-28T09:51:26+01:00","sp95_prix":1.829,"e85_maj":null,"e85_prix":null,"gplc_maj":null,"gplc_prix":null,"e10_maj":"2024-02-28T09:51:26+01:00","e10_prix":1.789,"sp98_maj":null,"sp98_prix":null,"pop":"R"},{"lat":49.21,"lon":1.17,"brand":"Total","adresse":"4 place jean jaures, 27400 Louviers","gazole_maj":"2024-02-29T09:20:03+01:00","gazole_prix":1.829,"sp95_maj":null,"sp95_prix":null,"e85_maj":null,"e85_prix":null,"gplc_maj":"2024-02-29T09:20:03+01:00","gplc_prix":0.92,"e10_maj":"2024-02-29T09:20:03+01:00","e10_prix":1.869,"sp98_maj":"2024-02-29T09:20:03+01:00","sp98_prix":1.939,"pop":"R"},{"lat":49.7335,"lon":3.2451,"brand":null,"adresse":"Rond point de la victoire, 2480 Jussy","gazole_maj":"2024-02-20T11:24:20+01:00","gazole_prix":1.829,"sp95_maj":null,"sp95_prix":null,"e85_maj":"2024-02-20T11:24:21+01:00","e85_prix":0.934,"gplc_maj":null,"gplc_prix":null,"e10_maj":"2024-02-20T11:24:21+01:00","e10_prix":1.835,"sp98_maj":"2024-02-20T11:24:21+01:00","sp98_prix":1.933,"pop":"R"},{"lat":49.185,"lon":3.1214,"brand":null,"adresse":"12 rue de villers, 2460 La Fert\u00e9-Milon","gazole_maj":"2024-02-26T12:30:42+01:00","gazole_prix":1.799,"sp95_maj":"2024-02-14T13:18:02+01:00","sp95_prix":1.929,"e85_maj":"2024-02-14T13:18:02+01:00","e85_prix":0.999,"gplc_maj":null,"gplc_prix":null,"e10_maj":null,"e10_prix":null,"sp98_maj":"2024-02-14T13:18:02+01:00","sp98_prix":1.979,"pop":"R"},{"lat":45.7923,"lon":5.1321,"brand":"Intermarch\u00e9","adresse":"RUE DES DIAMANTS, 38280 Villette-d'Anthon","gazole_maj":"2024-02-28T08:57:54+01:00","gazole_prix":1.779,"sp95_maj":null,"sp95_prix":null,"e85_maj":"2024-02-28T08:57:55+01:00","e85_prix":0.849,"gplc_maj":null,"gplc_prix":null,"e10_maj":"2024-02-28T08:57:55+01:00","e10_prix":1.839,"sp98_maj":null,"sp98_prix":null,"pop":"R"},{"lat":48.7451,"lon":1.9218,"brand":"Auchan","adresse":"RN10, 78310 Coigni\u00e8res","gazole_maj":"2024-02-22T08:11:39+01:00","gazole_prix":1.823,"sp95_maj":"2024-02-22T08:11:40+01:00","sp95_prix":1.879,"e85_maj":null,"e85_prix":null,"gplc_maj":"2023-12-08T07:32:29+01:00","gplc_prix":0.93,"e10_maj":null,"e10_prix":null,"sp98_maj":"2024-02-22T08:11:40+01:00","sp98_prix":1.919,"pop":"R"},{"lat":47.356,"lon":5.033,"brand":null,"adresse":"Rue des pr\u00e9s potets, 21121 Fontaine-l\u00e8s-Dijon","gazole_maj":"2024-02-26T10:56:51+01:00","gazole_prix":1.769,"sp95_maj":null,"sp95_prix":null,"e85_maj":null,"e85_prix":null,"gplc_maj":null,"gplc_prix":null,"e10_maj":"2024-02-26T10:56:51+01:00","e10_prix":1.819,"sp98_maj":"2024-02-26T10:56:52+01:00","sp98_prix":1.899,"pop":"R"},{"lat":45.165,"lon":1.511,"brand":null,"adresse":"90 AV RIBOT, 19100 Brive-la-Gaillarde","gazole_maj":"2024-02-29T01:01:00+01:00","gazole_prix":1.772,"sp95_maj":null,"sp95_prix":null,"e85_maj":"2024-02-29T01:01:00+01:00","e85_prix":0.849,"gplc_maj":"2024-02-29T01:01:00+01:00","gplc_prix":1.024,"e10_maj":"2024-02-29T01:01:00+01:00","e10_prix":1.797,"sp98_maj":"2024-02-29T01:01:00+01:00","sp98_prix":1.911,"pop":"R"},{"lat":48.452,"lon":2.173,"brand":null,"adresse":"94 BLD ST MICHEL, 91150 Morigny-Champigny","gazole_maj":"2024-02-29T01:01:00+01:00","gazole_prix":1.809,"sp95_maj":null,"sp95_prix":null,"e85_maj":"2024-02-29T01:01:00+01:00","e85_prix":0.899,"gplc_maj":"2024-02-29T01:01:00+01:00","gplc_prix":0.929,"e10_maj":"2024-02-29T01:01:00+01:00","e10_prix":1.819,"sp98_maj":null,"sp98_prix":null,"pop":"R"},{"lat":47.5288,"lon":3.0702,"brand":"Carrefour Contact","adresse":"Route de Cosne, 58310 Saint-Amand-en-Puisaye","gazole_maj":"2024-02-27T10:21:51+01:00","gazole_prix":1.809,"sp95_maj":"2024-02-27T10:21:51+01:00","sp95_prix":1.881,"e85_maj":"2023-12-11T09:50:17+01:00","e85_prix":0.999,"gplc_maj":null,"gplc_prix":null,"e10_maj":null,"e10_prix":null,"sp98_maj":null,"sp98_prix":null,"pop":"R"},{"lat":48.7287,"lon":2.4318,"brand":"Agip","adresse":"32 Avenue le Foll, 94290 Villeneuve-le-Roi","gazole_maj":"2024-02-25T09:43:54+01:00","gazole_prix":1.799,"sp95_maj":"2024-02-25T09:43:54+01:00","sp95_prix":1.848,"e85_maj":null,"e85_prix":null,"gplc_maj":null,"gplc_prix":null,"e10_maj":"2024-02-25T09:43:55+01:00","e10_prix":1.798,"sp98_maj":"2024-02-25T09:43:55+01:00","sp98_prix":1.878,"pop":"R"},{"lat":48.6807,"lon":5.8893,"brand":null,"adresse":"250 AVENUE DU COLONEL PECHOT, 54200 Toul","gazole_maj":"2024-02-29T16:21:17+01:00","gazole_prix":1.769,"sp95_maj":null,"sp95_prix":null,"e85_maj":"2024-02-06T11:15:20+01:00","e85_prix":0.849,"gplc_maj":null,"gplc_prix":null,"e10_maj":"2024-02-28T11:21:58+01:00","e10_prix":1.798,"sp98_maj":"2024-02-28T11:21:58+01:00","sp98_prix":1.876,"pop":"R"},{"lat":44.7458,"lon":4.745,"brand":"Total","adresse":"RD86 SORTIE SUD, 7250 Le Pouzin","gazole_maj":"2024-02-16T09:28:42+01:00","gazole_prix":1.894,"sp95_maj":"2024-02-16T09:28:42+01:00","sp95_prix":1.958,"e85_maj":null,"e85_prix":null,"gplc_maj":null,"gplc_prix":null,"e10_maj":null,"e10_prix":null,"sp98_maj":null,"sp98_prix":null,"pop":"R"},{"lat":48.2185,"lon":0.1302,"brand":null,"adresse":"45 RUE DU MANS, 72170 Maresch\u00e9","gazole_maj":"2022-12-06T11:49:23+01:00","gazole_prix":1.87,"sp95_maj":"2022-12-06T11:49:23+01:00","sp95_prix":1.78,"e85_maj":null,"e85_prix":null,"gplc_maj":null,"gplc_prix":null,"e10_maj":null,"e10_prix":null,"sp98_maj":null,"sp98_prix":null,"pop":"R"},{"lat":45.127,"lon":-0.643,"brand":"Leclerc","adresse":"Route de Bordeaux, 33390 Blaye","gazole_maj":"2024-02-20T12:35:56+01:00","gazole_prix":1.778,"sp95_maj":null,"sp95_prix":null,"e85_maj":"2024-02-14T15:22:14+01:00","e85_prix":0.845,"gplc_maj":null,"gplc_prix":null,"e10_maj":"2024-02-20T12:35:56+01:00","e10_prix":1.778,"sp98_maj":"2024-02-20T12:35:57+01:00","sp98_prix":1.838,"pop":"R"},{"lat":45.5,"lon":1.2,"brand":"Intermarch\u00e9","adresse":"Route de Brive-Glandon, 87500 Saint-Yrieix-la-Perche","gazole_maj":"2024-02-15T19:46:12+01:00","gazole_prix":1.799,"sp95_maj":"2024-02-15T19:46:12+01:00","sp95_prix":1.849,"e85_maj":"2024-02-15T19:46:12+01:00","e85_prix":0.848,"gplc_maj":null,"gplc_prix":null,"e10_maj":"2024-02-15T19:46:12+01:00","e10_prix":1.819,"sp98_maj":"2024-02-15T19:46:13+01:00","sp98_prix":1.899,"pop":"R"},{"lat":49.26,"lon":4.063,"brand":"Carrefour","adresse":"16 route de cernay, 51100 Reims","gazole_maj":"2024-02-29T12:32:33+01:00","gazole_prix":1.776,"sp95_maj":"2024-02-29T12:32:34+01:00","sp95_prix":1.848,"e85_maj":null,"e85_prix":null,"gplc_maj":null,"gplc_prix":null,"e10_maj":"2024-02-29T12:32:34+01:00","e10_prix":1.811,"sp98_maj":"2024-02-29T12:32:35+01:00","sp98_prix":1.888,"pop":"R"},{"lat":46.124,"lon":-0.134,"brand":"Avia","adresse":"55 route de Niort, 79110 Fontenille-Saint-Martin-d'Entraigues","gazole_maj":"2024-02-08T14:21:53+01:00","gazole_prix":1.869,"sp95_maj":"2023-11-07T12:22:04+01:00","sp95_prix":1.929,"e85_maj":null,"e85_prix":null,"gplc_maj":null,"gplc_prix":null,"e10_maj":null,"e10_prix":null,"sp98_maj":"2023-11-07T12:22:05+01:00","sp98_prix":1.949,"pop":"R"},{"lat":48.53,"lon":-0.472,"brand":"Carrefour Contact","adresse":"ZA Les Fourmis, 61140 Rives d'Andaine","gazole_maj":"2024-02-12T15:48:00+01:00","gazole_prix":1.839,"sp95_maj":"2024-02-13T12:01:46+01:00","sp95_prix":1.849,"e85_maj":null,"e85_prix":null,"gplc_maj":null,"gplc_prix":null,"e10_maj":null,"e10_prix":null,"sp98_maj":"2024-02-19T16:07:36+01:00","sp98_prix":1.899,"pop":"R"},{"lat":48.558,"lon":-3.824,"brand":"Intermarch\u00e9","adresse":"Clos Saint-Fiacre, 29600 Plourin-l\u00e8s-Morlaix","gazole_maj":"2024-02-23T10:16:36+01:00","gazole_prix":1.745,"sp95_maj":"2024-02-23T10:16:38+01:00","sp95_prix":1.829,"e85_maj":null,"e85_prix":null,"gplc_maj":null,"gplc_prix":null,"e10_maj":"2024-02-23T10:16:43+01:00","e10_prix":1.769,"sp98_maj":null,"sp98_prix":null,"pop":"R"},{"lat":45.4748,"lon":6.5281,"brand":null,"adresse":"RN 90, 73730 Salins-Fontaine","gazole_maj":"2024-02-29T07:00:00+01:00","gazole_prix":1.92,"sp95_maj":null,"sp95_prix":null,"e85_maj":null,"e85_prix":null,"gplc_maj":null,"gplc_prix":null,"e10_maj":"2024-02-29T07:00:00+01:00","e10_prix":1.97,"sp98_maj":"2024-02-29T07:00:00+01:00","sp98_prix":2.06,"pop":"R"},{"lat":43.302,"lon":6.236,"brand":null,"adresse":"Lieu dit le Fege- RN97, 83790 Pignans","gazole_maj":"2024-02-26T11:34:30+01:00","gazole_prix":1.788,"sp95_maj":"2024-02-20T10:45:25+01:00","sp95_prix":1.864,"e85_maj":null,"e85_prix":null,"gplc_maj":null,"gplc_prix":null,"e10_maj":"2024-02-20T10:45:25+01:00","e10_prix":1.835,"sp98_maj":null,"sp98_prix":null,"pop":"R"},{"lat":43.8638,"lon":0.1073,"brand":null,"adresse":"RTE DE MANCIET, 32800 Eauze","gazole_maj":"2024-02-13T20:00:00+01:00","gazole_prix":1.799,"sp95_maj":null,"sp95_prix":null,"e85_maj":null,"e85_prix":null,"gplc_maj":null,"gplc_prix":null,"e10_maj":"2024-02-20T20:00:00+01:00","e10_prix":1.799,"sp98_maj":"2024-02-13T20:00:00+01:00","sp98_prix":1.879,"pop":"R"},{"lat":48.525,"lon":-2.241,"brand":"Syst\u00e8me U","adresse":"Rue du Conn\u00e9table de Clisson, 22130 Saint-Lormel","gazole_maj":"2024-02-23T10:21:49+01:00","gazole_prix":1.748,"sp95_maj":null,"sp95_prix":null,"e85_maj":"2024-02-15T10:18:39+01:00","e85_prix":0.899,"gplc_maj":null,"gplc_prix":null,"e10_maj":"2024-02-23T10:21:50+01:00","e10_prix":1.753,"sp98_maj":"2024-02-23T10:21:50+01:00","sp98_prix":1.828,"pop":"R"},{"lat":50.353,"lon":3.535,"brand":"Simply Market","adresse":"59 Avenue de Verdun, 59300 Valenciennes","gazole_maj":"2024-01-24T18:36:37+01:00","gazole_prix":1.76,"sp95_maj":null,"sp95_prix":null,"e85_maj":null,"e85_prix":null,"gplc_maj":null,"gplc_prix":null,"e10_maj":"2024-01-31T16:20:32+01:00","e10_prix":1.786,"sp98_maj":null,"sp98_prix":null,"pop":"R"},{"lat":43.282,"lon":2.437,"brand":null,"adresse":"RD 620 Lieu dit la pi\u00e8ce, 11600 Villegly","gazole_maj":"2024-02-29T15:00:00+01:00","gazole_prix":1.849,"sp95_maj":null,"sp95_prix":null,"e85_maj":null,"e85_prix":null,"gplc_maj":null,"gplc_prix":null,"e10_maj":"2024-02-29T15:00:00+01:00","e10_prix":1.939,"sp98_maj":null,"sp98_prix":null,"pop":"R"},{"lat":46.332,"lon":2.974,"brand":null,"adresse":"40 all\u00e9e de la pause, 3390 Sazeret","gazole_maj":"2024-02-24T07:00:00+01:00","gazole_prix":1.849,"sp95_maj":null,"sp95_prix":null,"e85_maj":"2024-02-24T07:00:00+01:00","e85_prix":1.109,"gplc_maj":null,"gplc_prix":null,"e10_maj":"2024-02-24T07:00:00+01:00","e10_prix":1.889,"sp98_maj":"2024-02-24T07:00:00+01:00","sp98_prix":1.989,"pop":"R"},{"lat":45.2898,"lon":3.3872,"brand":"Casino","adresse":"Avenue L\u00e9on Blum, 43100 Brioude","gazole_maj":"2024-02-28T08:57:59+01:00","gazole_prix":1.758,"sp95_maj":null,"sp95_prix":null,"e85_maj":null,"e85_prix":null,"gplc_maj":null,"gplc_prix":null,"e10_maj":"2024-02-29T14:37:41+01:00","e10_prix":1.79,"sp98_maj":"2024-02-29T08:50:05+01:00","sp98_prix":1.888,"pop":"R"},{"lat":50.3134,"lon":2.7619,"brand":"Intermarch\u00e9","adresse":"Route de B\u00e9thune, 62223 Sainte-Catherine","gazole_maj":"2024-02-28T16:37:18+01:00","gazole_prix":1.759,"sp95_maj":null,"sp95_prix":null,"e85_maj":"2024-02-28T11:38:36+01:00","e85_prix":0.848,"gplc_maj":null,"gplc_prix":null,"e10_maj":"2024-02-28T11:38:36+01:00","e10_prix":1.78,"sp98_maj":"2024-02-28T11:38:36+01:00","sp98_prix":1.868,"pop":"R"},{"lat":44.8983,"lon":1.4627,"brand":"Leclerc","adresse":"Avenue de Verdun, 46200 Souillac","gazole_maj":"2024-02-28T16:06:42+01:00","gazole_prix":1.769,"sp95_maj":null,"sp95_prix":null,"e85_maj":"2024-02-12T12:59:22+01:00","e85_prix":0.879,"gplc_maj":null,"gplc_prix":null,"e10_maj":"2024-02-28T16:06:42+01:00","e10_prix":1.789,"sp98_maj":"2024-02-23T10:00:07+01:00","sp98_prix":1.865,"pop":"R"},{"lat":47.675,"lon":-2.569,"brand":"Intermarch\u00e9","adresse":"Rue Ren\u00e9 Cassin, 56250 Sulniac","gazole_maj":"2024-02-24T10:26:36+01:00","gazole_prix":1.799,"sp95_maj":null,"sp95_prix":null,"e85_maj":null,"e85_prix":null,"gplc_maj":null,"gplc_prix":null,"e10_maj":"2024-02-15T15:21:54+01:00","e10_prix":1.809,"sp98_maj":"2024-02-15T15:21:55+01:00","sp98_prix":1.889,"pop":"R"},{"lat":44.884,"lon":-0.691,"brand":"Leclerc","adresse":"34, Avenue Descartes, 33160 Saint-M\u00e9dard-en-Jalles","gazole_maj":"2024-02-29T09:53:00+01:00","gazole_prix":1.74,"sp95_maj":"2024-02-29T09:53:00+01:00","sp95_prix":1.823,"e85_maj":"2024-02-29T09:53:00+01:00","e85_prix":0.847,"gplc_maj":"2024-02-29T09:53:00+01:00","gplc_prix":0.977,"e10_maj":"2024-02-29T09:53:00+01:00","e10_prix":1.746,"sp98_maj":"2024-02-29T09:53:00+01:00","sp98_prix":1.839,"pop":"R"},{"lat":45.17,"lon":5.537,"brand":"Elan","adresse":"190 CHEMIN DE CHAMP BERNARD, 38880 Autrans-M\u00e9audre en Vercors","gazole_maj":"2024-02-05T08:48:07+01:00","gazole_prix":1.965,"sp95_maj":"2024-02-05T08:40:59+01:00","sp95_prix":1.99,"e85_maj":null,"e85_prix":null,"gplc_maj":null,"gplc_prix":null,"e10_maj":null,"e10_prix":null,"sp98_maj":null,"sp98_prix":null,"pop":"R"},{"lat":47.852,"lon":3.985,"brand":"Auchan","adresse":"ROUTE DE DIJON, 89700 Tonnerre","gazole_maj":"2024-02-13T01:00:00+01:00","gazole_prix":1.869,"sp95_maj":"2024-01-30T01:00:00+01:00","sp95_prix":1.899,"e85_maj":null,"e85_prix":null,"gplc_maj":null,"gplc_prix":null,"e10_maj":null,"e10_prix":null,"sp98_maj":"2024-01-30T01:00:00+01:00","sp98_prix":1.949,"pop":"R"},{"lat":43.159,"lon":6.483,"brand":"Elan","adresse":"28 avenue Etienne Gola,, 83820 Rayol-Canadel-sur-Mer","gazole_maj":"2023-09-01T10:05:06+02:00","gazole_prix":1.94,"sp95_maj":"2023-09-01T10:05:06+02:00","sp95_prix":1.94,"e85_maj":null,"e85_prix":null,"gplc_maj":null,"gplc_prix":null,"e10_maj":null,"e10_prix":null,"sp98_maj":"2023-09-01T10:05:06+02:00","sp98_prix":1.99,"pop":"R"},{"lat":48.914,"lon":-1.193,"brand":"Intermarch\u00e9","adresse":"Rue Jean le Couturier, 50410 Percy-en-Normandie","gazole_maj":"2024-02-22T07:32:40+01:00","gazole_prix":1.779,"sp95_maj":"2024-02-19T08:32:37+01:00","sp95_prix":1.849,"e85_maj":null,"e85_prix":null,"gplc_maj":null,"gplc_prix":null,"e10_maj":null,"e10_prix":null,"sp98_maj":null,"sp98_prix":null,"pop":"R"},{"lat":45.146,"lon":0.005,"brand":"Intermarch\u00e9","adresse":"59 Avenue d'Aquitaine, 24490 La Roche-Chalais","gazole_maj":"2024-02-22T10:01:01+01:00","gazole_prix":1.777,"sp95_maj":"2024-02-28T13:25:43+01:00","sp95_prix":1.83,"e85_maj":"2024-02-10T09:50:46+01:00","e85_prix":0.848,"gplc_maj":"2024-02-15T10:03:51+01:00","gplc_prix":1.023,"e10_maj":"2024-02-15T10:03:11+01:00","e10_prix":1.805,"sp98_maj":"2024-02-23T10:23:11+01:00","sp98_prix":1.85,"pop":"R"},{"lat":46.1952,"lon":2.2389,"brand":"Carrefour Market","adresse":"Avenue du Berry, 23230 Gouzon","gazole_maj":"2024-02-22T09:45:00+01:00","gazole_prix":1.809,"sp95_maj":"2024-02-22T09:45:00+01:00","sp95_prix":1.849,"e85_maj":null,"e85_prix":null,"gplc_maj":null,"gplc_prix":null,"e10_maj":null,"e10_prix":null,"sp98_maj":"2024-02-22T09:45:00+01:00","sp98_prix":1.909,"pop":"R"},{"lat":45.661,"lon":6.382,"brand":"Intermarch\u00e9","adresse":"100 Rue Pasteur, 73200 Albertville","gazole_maj":"2024-02-27T10:26:21+01:00","gazole_prix":1.779,"sp95_maj":null,"sp95_prix":null,"e85_maj":null,"e85_prix":null,"gplc_maj":null,"gplc_prix":null,"e10_maj":"2024-02-20T10:26:25+01:00","e10_prix":1.829,"sp98_maj":"2024-02-20T10:26:26+01:00","sp98_prix":1.899,"pop":"R"},{"lat":49.498,"lon":0.929,"brand":"Intermarch\u00e9 Contact","adresse":"Chemin de la Messe, 76480 Saint-Pierre-de-Varengeville","gazole_maj":"2024-02-29T11:50:07+01:00","gazole_prix":1.769,"sp95_maj":"2024-02-29T11:50:08+01:00","sp95_prix":1.848,"e85_maj":null,"e85_prix":null,"gplc_maj":null,"gplc_prix":null,"e10_maj":"2024-02-29T11:50:08+01:00","e10_prix":1.812,"sp98_maj":"2024-02-29T11:50:08+01:00","sp98_prix":1.887,"pop":"R"},{"lat":47.143,"lon":4.944,"brand":"Intermarch\u00e9","adresse":"6 RUE CAUMONT BREON, 21700 Nuits-Saint-Georges","gazole_maj":"2024-02-26T12:46:45+01:00","gazole_prix":1.769,"sp95_maj":null,"sp95_prix":null,"e85_maj":"2024-01-15T12:36:24+01:00","e85_prix":0.849,"gplc_maj":null,"gplc_prix":null,"e10_maj":"2024-02-29T12:30:46+01:00","e10_prix":1.835,"sp98_maj":"2024-02-29T12:30:47+01:00","sp98_prix":1.915,"pop":"R"},{"lat":48.953,"lon":4.382,"brand":"Avia","adresse":"7 avenue Jacques Simon, 51470 Saint-Memmie","gazole_maj":"2024-02-13T08:30:00+01:00","gazole_prix":1.889,"sp95_maj":"2024-02-13T08:30:00+01:00","sp95_prix":1.949,"e85_maj":null,"e85_prix":null,"gplc_maj":null,"gplc_prix":null,"e10_maj":null,"e10_prix":null,"sp98_maj":"2024-02-13T08:30:00+01:00","sp98_prix":1.979,"pop":"R"},{"lat":41.614,"lon":9.28,"brand":"Total","adresse":"route de bastia, 20137 Porto-Vecchio","gazole_maj":"2024-02-15T18:20:55+01:00","gazole_prix":1.98,"sp95_maj":"2024-02-15T18:20:55+01:00","sp95_prix":1.99,"e85_maj":null,"e85_prix":null,"gplc_maj":"2024-02-15T18:20:55+01:00","gplc_prix":1.28,"e10_maj":null,"e10_prix":null,"sp98_maj":null,"sp98_prix":null,"pop":"R"},{"lat":45.0906,"lon":1.9405,"brand":"Ind\u00e9pendant sans enseigne","adresse":"25, avenue des XAINTRIES, 19400 Argentat-sur-Dordogne","gazole_maj":"2024-02-29T16:51:01+01:00","gazole_prix":1.852,"sp95_maj":null,"sp95_prix":null,"e85_maj":"2024-02-29T16:52:48+01:00","e85_prix":1.019,"gplc_maj":null,"gplc_prix":null,"e10_maj":null,"e10_prix":null,"sp98_maj":"2024-02-29T16:52:48+01:00","sp98_prix":1.99,"pop":"R"},{"lat":49.9052,"lon":1.0768,"brand":null,"adresse":"AVENUE DES CANADIENS, 76200 Dieppe","gazole_maj":"2024-02-29T01:01:00+01:00","gazole_prix":1.769,"sp95_maj":null,"sp95_prix":null,"e85_maj":"2024-02-29T01:01:00+01:00","e85_prix":0.899,"gplc_maj":null,"gplc_prix":null,"e10_maj":"2024-02-29T01:01:00+01:00","e10_prix":1.782,"sp98_maj":"2024-02-29T01:01:00+01:00","sp98_prix":1.875,"pop":"R"},{"lat":49.026,"lon":2.104,"brand":null,"adresse":"ROUTE NATIONALE 184, 95610 \u00c9ragny","gazole_maj":"2024-02-22T14:30:00+01:00","gazole_prix":1.929,"sp95_maj":null,"sp95_prix":null,"e85_maj":"2024-02-28T13:10:00+01:00","e85_prix":0.919,"gplc_maj":"2024-02-28T13:10:00+01:00","gplc_prix":1.139,"e10_maj":"2024-02-26T15:05:00+01:00","e10_prix":1.959,"sp98_maj":"2024-02-26T15:05:00+01:00","sp98_prix":2.079,"pop":"R"},{"lat":46.6919,"lon":4.8452,"brand":null,"adresse":"Autoroute A6, 71240 Saint-Ambreuil","gazole_maj":"2024-02-29T10:48:37+01:00","gazole_prix":1.889,"sp95_maj":null,"sp95_prix":null,"e85_maj":"2024-02-29T10:48:38+01:00","e85_prix":1.059,"gplc_maj":null,"gplc_prix":null,"e10_maj":"2024-02-29T10:48:38+01:00","e10_prix":1.957,"sp98_maj":"2024-02-29T10:48:38+01:00","sp98_prix":1.99,"pop":"A"},{"lat":46.805,"lon":4.474,"brand":"Leclerc","adresse":"AV DE CHAMBREUIL, 71670 Le Breuil","gazole_maj":"2024-02-26T11:46:37+01:00","gazole_prix":1.799,"sp95_maj":"2024-02-15T11:54:44+01:00","sp95_prix":1.879,"e85_maj":null,"e85_prix":null,"gplc_maj":null,"gplc_prix":null,"e10_maj":"2024-02-23T11:06:23+01:00","e10_prix":1.829,"sp98_maj":"2024-02-23T11:06:23+01:00","sp98_prix":1.909,"pop":"R"},{"lat":45.1926,"lon":1.4521,"brand":"Shopi","adresse":"8 AV 11 NOVEMBRE, 19240 Varetz","gazole_maj":"2024-02-26T12:52:15+01:00","gazole_prix":1.818,"sp95_maj":"2024-02-15T13:54:31+01:00","sp95_prix":1.868,"e85_maj":null,"e85_prix":null,"gplc_maj":null,"gplc_prix":null,"e10_maj":null,"e10_prix":null,"sp98_maj":"2024-02-15T13:54:31+01:00","sp98_prix":1.918,"pop":"R"},{"lat":50.448,"lon":2.72,"brand":"Carrefour Market","adresse":"18 rue Casimir Beugnet, 62160 Bully-les-Mines","gazole_maj":"2024-02-17T09:10:56+01:00","gazole_prix":1.809,"sp95_maj":"2024-02-17T09:10:57+01:00","sp95_prix":1.844,"e85_maj":null,"e85_prix":null,"gplc_maj":null,"gplc_prix":null,"e10_maj":null,"e10_prix":null,"sp98_maj":"2024-02-17T09:10:57+01:00","sp98_prix":1.91,"pop":"R"},{"lat":50.111,"lon":3.038,"brand":"Intermarch\u00e9","adresse":"22 GRANDE PLACE, 62147 Hermies","gazole_maj":"2024-02-13T16:01:15+01:00","gazole_prix":1.873,"sp95_maj":null,"sp95_prix":null,"e85_maj":"2024-02-13T16:01:15+01:00","e85_prix":0.994,"gplc_maj":null,"gplc_prix":null,"e10_maj":"2024-02-13T16:01:15+01:00","e10_prix":1.855,"sp98_maj":"2024-02-13T16:01:16+01:00","sp98_prix":1.951,"pop":"R"},{"lat":47.601,"lon":2.027,"brand":"Carrefour Market","adresse":"20 RUE GAUGIRAN, 41600 Lamotte-Beuvron","gazole_maj":"2024-02-28T16:25:19+01:00","gazole_prix":1.829,"sp95_maj":null,"sp95_prix":null,"e85_maj":null,"e85_prix":null,"gplc_maj":null,"gplc_prix":null,"e10_maj":"2024-02-28T16:25:20+01:00","e10_prix":1.859,"sp98_maj":"2024-02-20T11:10:46+01:00","sp98_prix":1.941,"pop":"R"},{"lat":48.627,"lon":-2.405,"brand":"Total","adresse":"LA NOE, 22240 Plurien","gazole_maj":"2024-02-28T09:05:26+01:00","gazole_prix":1.86,"sp95_maj":null,"sp95_prix":null,"e85_maj":null,"e85_prix":null,"gplc_maj":null,"gplc_prix":null,"e10_maj":"2024-02-28T09:05:27+01:00","e10_prix":1.872,"sp98_maj":"2024-02-28T09:05:27+01:00","sp98_prix":1.982,"pop":"R"},{"lat":44.472,"lon":4.356,"brand":null,"adresse":"CHAMP DU SOULIER, 7120 Pradons","gazole_maj":"2024-02-24T11:26:56+01:00","gazole_prix":1.879,"sp95_maj":null,"sp95_prix":null,"e85_maj":null,"e85_prix":null,"gplc_maj":null,"gplc_prix":null,"e10_maj":"2024-02-24T11:26:56+01:00","e10_prix":1.904,"sp98_maj":"2024-02-24T11:26:57+01:00","sp98_prix":1.99,"pop":"R"},{"lat":49.41,"lon":1.033,"brand":null,"adresse":"AVENUE FRANKLIN ROOSEVELT, 76120 Le Grand-Quevilly","gazole_maj":"2024-02-26T15:05:00+01:00","gazole_prix":1.869,"sp95_maj":null,"sp95_prix":null,"e85_maj":null,"e85_prix":null,"gplc_maj":null,"gplc_prix":null,"e10_maj":"2024-02-23T16:10:00+01:00","e10_prix":1.899,"sp98_maj":null,"sp98_prix":null,"pop":"R"},{"lat":50.68,"lon":3.223,"brand":"Auchan","adresse":"1, avenue de l'Europe, 59115 Leers","gazole_maj":"2024-02-22T07:55:13+01:00","gazole_prix":1.789,"sp95_maj":null,"sp95_prix":null,"e85_maj":"2024-02-22T07:55:13+01:00","e85_prix":0.889,"gplc_maj":null,"gplc_prix":null,"e10_maj":"2024-02-22T07:55:13+01:00","e10_prix":1.805,"sp98_maj":"2024-02-22T07:55:14+01:00","sp98_prix":1.909,"pop":"R"},{"lat":45.705,"lon":3.13,"brand":"Ecomarch\u00e9","adresse":"LIEUDIT CHATEAUGAY, 63670 La Roche-Blanche","gazole_maj":"2024-02-14T16:02:15+01:00","gazole_prix":1.847,"sp95_maj":"2024-02-14T16:02:15+01:00","sp95_prix":1.889,"e85_maj":null,"e85_prix":null,"gplc_maj":null,"gplc_prix":null,"e10_maj":null,"e10_prix":null,"sp98_maj":"2024-02-14T16:02:16+01:00","sp98_prix":1.933,"pop":"R"},{"lat":48.99,"lon":6.784,"brand":"Ind\u00e9pendant sans enseigne","adresse":"5 rue du Kreuzhof, 57660 Erstroff","gazole_maj":"2024-02-27T18:16:37+01:00","gazole_prix":1.92,"sp95_maj":"2024-02-16T10:19:30+01:00","sp95_prix":1.94,"e85_maj":null,"e85_prix":null,"gplc_maj":null,"gplc_prix":null,"e10_maj":null,"e10_prix":null,"sp98_maj":null,"sp98_prix":null,"pop":"R"},{"lat":47.6247,"lon":2.7506,"brand":"Carrefour Market","adresse":"Route d'Ousson, 45250 Briare","gazole_maj":"2024-02-22T11:59:53+01:00","gazole_prix":1.779,"sp95_maj":"2024-02-15T11:42:46+01:00","sp95_prix":1.839,"e85_maj":null,"e85_prix":null,"gplc_maj":null,"gplc_prix":null,"e10_maj":null,"e10_prix":null,"sp98_maj":"2024-02-15T11:42:46+01:00","sp98_prix":1.859,"pop":"R"},{"lat":49.611,"lon":1.551,"brand":null,"adresse":"57 RUE DE LA LIBERATION, 76440 Forges-les-Eaux","gazole_maj":"2024-02-26T15:05:00+01:00","gazole_prix":1.869,"sp95_maj":null,"sp95_prix":null,"e85_maj":null,"e85_prix":null,"gplc_maj":null,"gplc_prix":null,"e10_maj":"2024-02-20T16:30:00+01:00","e10_prix":1.899,"sp98_maj":"2024-02-20T16:30:00+01:00","sp98_prix":1.999,"pop":"R"},{"lat":48.936,"lon":2.515,"brand":null,"adresse":"50 avenue john fitzgerald kennedy, 93270 Sevran","gazole_maj":"2024-02-09T13:59:39+01:00","gazole_prix":1.999,"sp95_maj":null,"sp95_prix":null,"e85_maj":null,"e85_prix":null,"gplc_maj":null,"gplc_prix":null,"e10_maj":"2024-02-09T13:59:39+01:00","e10_prix":1.999,"sp98_maj":"2024-02-09T13:59:39+01:00","sp98_prix":2.079,"pop":"R"},{"lat":48.957,"lon":2.56,"brand":null,"adresse":"AVENUE G CLEMENCEAU CD 40, 93420 Villepinte","gazole_maj":"2024-02-16T17:55:00+01:00","gazole_prix":1.959,"sp95_maj":null,"sp95_prix":null,"e85_maj":null,"e85_prix":null,"gplc_maj":"2023-08-03T15:35:00+02:00","gplc_prix":1.049,"e10_maj":"2024-02-16T17:55:00+01:00","e10_prix":1.959,"sp98_maj":"2024-02-16T17:55:00+01:00","sp98_prix":2.079,"pop":"R"},{"lat":42.96,"lon":2.529,"brand":"Ind\u00e9pendant sans enseigne","adresse":"1, impasse des Corbi\u00e8res, 11330 Mouthoumet","gazole_maj":"2024-02-06T09:51:35+01:00","gazole_prix":1.872,"sp95_maj":"2024-02-06T09:51:35+01:00","sp95_prix":1.944,"e85_maj":"2024-02-06T09:51:35+01:00","e85_prix":1.176,"gplc_maj":null,"gplc_prix":null,"e10_maj":null,"e10_prix":null,"sp98_maj":null,"sp98_prix":null,"pop":"R"},{"lat":45.148,"lon":5.693,"brand":"Leclerc","adresse":"8 place Grande Moucherolle, 38130 \u00c9chirolles","gazole_maj":"2024-02-29T10:29:00+01:00","gazole_prix":1.746,"sp95_maj":"2024-02-29T10:29:00+01:00","sp95_prix":1.848,"e85_maj":null,"e85_prix":null,"gplc_maj":null,"gplc_prix":null,"e10_maj":"2024-02-29T10:29:00+01:00","e10_prix":1.78,"sp98_maj":"2024-02-29T10:29:00+01:00","sp98_prix":1.879,"pop":"R"},{"lat":47.782,"lon":1.071,"brand":"Intermarch\u00e9","adresse":"Route de Blois La Pierre Lev\u00e9e, 41100 Vend\u00f4me","gazole_maj":"2024-02-23T10:27:42+01:00","gazole_prix":1.799,"sp95_maj":null,"sp95_prix":null,"e85_maj":null,"e85_prix":null,"gplc_maj":"2024-01-24T12:48:14+01:00","gplc_prix":0.995,"e10_maj":"2024-02-13T10:37:10+01:00","e10_prix":1.821,"sp98_maj":"2024-02-13T10:37:10+01:00","sp98_prix":1.883,"pop":"R"},{"lat":49.2229,"lon":1.0629,"brand":null,"adresse":"7 RUE DU CARBONNIER GARAGE DU CARBONNIER, 27400 La Haye-Malherbe","gazole_maj":"2024-02-27T12:23:52+01:00","gazole_prix":1.89,"sp95_maj":"2024-02-27T12:23:53+01:00","sp95_prix":1.966,"e85_maj":null,"e85_prix":null,"gplc_maj":null,"gplc_prix":null,"e10_maj":null,"e10_prix":null,"sp98_maj":null,"sp98_prix":null,"pop":"R"},{"lat":45.1816,"lon":4.3143,"brand":"Ind\u00e9pendant sans enseigne","adresse":"9 av C\u00e9vennes, 43290 Montfaucon-en-Velay","gazole_maj":"2024-02-26T15:06:05+01:00","gazole_prix":1.84,"sp95_maj":"2024-02-23T15:17:20+01:00","sp95_prix":1.92,"e85_maj":null,"e85_prix":null,"gplc_maj":null,"gplc_prix":null,"e10_maj":null,"e10_prix":null,"sp98_maj":null,"sp98_prix":null,"pop":"R"},{"lat":48.7046,"lon":2.254,"brand":null,"adresse":"CHEMIN DE BRIIS CD 59, 91140 Villebon-sur-Yvette","gazole_maj":"2024-02-29T01:01:00+01:00","gazole_prix":1.837,"sp95_maj":null,"sp95_prix":null,"e85_maj":null,"e85_prix":null,"gplc_maj":null,"gplc_prix":null,"e10_maj":"2024-02-29T01:01:00+01:00","e10_prix":1.847,"sp98_maj":"2024-02-29T01:01:00+01:00","sp98_prix":1.937,"pop":"R"},{"lat":43.832,"lon":2.873,"brand":"Intermarch\u00e9 Contact","adresse":"Z.A. Bel air, 12360 Camar\u00e8s","gazole_maj":"2024-02-24T15:22:56+01:00","gazole_prix":1.775,"sp95_maj":"2024-02-24T15:22:56+01:00","sp95_prix":1.845,"e85_maj":null,"e85_prix":null,"gplc_maj":null,"gplc_prix":null,"e10_maj":"2024-02-24T15:22:57+01:00","e10_prix":1.829,"sp98_maj":null,"sp98_prix":null,"pop":"R"},{"lat":49.169,"lon":3.257,"brand":null,"adresse":"2 RUE Jese RACINE, 2470 Neuilly-Saint-Front","gazole_maj":"2024-02-29T11:49:00+01:00","gazole_prix":1.78,"sp95_maj":null,"sp95_prix":null,"e85_maj":null,"e85_prix":null,"gplc_maj":null,"gplc_prix":null,"e10_maj":"2024-02-29T11:49:00+01:00","e10_prix":1.798,"sp98_maj":"2024-02-29T11:49:00+01:00","sp98_prix":1.872,"pop":"R"},{"lat":48.414,"lon":3.242,"brand":"Carrefour Market","adresse":"82 AVENUE DE LA LIBERATION, 77480 Bray-sur-Seine","gazole_maj":"2024-02-23T20:52:05+01:00","gazole_prix":1.799,"sp95_maj":"2024-02-17T16:35:11+01:00","sp95_prix":1.839,"e85_maj":null,"e85_prix":null,"gplc_maj":null,"gplc_prix":null,"e10_maj":null,"e10_prix":null,"sp98_maj":"2024-02-16T08:52:37+01:00","sp98_prix":1.879,"pop":"R"},{"lat":46.116,"lon":1.624,"brand":null,"adresse":"4 avenue du limousin, 23210 B\u00e9n\u00e9vent-l'Abbaye","gazole_maj":"2024-02-22T13:52:33+01:00","gazole_prix":1.813,"sp95_maj":"2024-02-14T09:28:02+01:00","sp95_prix":1.859,"e85_maj":null,"e85_prix":null,"gplc_maj":null,"gplc_prix":null,"e10_maj":null,"e10_prix":null,"sp98_maj":null,"sp98_prix":null,"pop":"R"},{"lat":46.317,"lon":-0.473,"brand":null,"adresse":"122 AVENUE DE LA ROCHELLE, 79000 Niort","gazole_maj":"2024-02-29T01:01:00+01:00","gazole_prix":1.755,"sp95_maj":null,"sp95_prix":null,"e85_maj":null,"e85_prix":null,"gplc_maj":"2024-02-29T01:01:00+01:00","gplc_prix":0.979,"e10_maj":"2024-02-29T01:01:00+01:00","e10_prix":1.786,"sp98_maj":"2024-02-29T01:01:00+01:00","sp98_prix":1.885,"pop":"R"},{"lat":48.55,"lon":5.481,"brand":"Ind\u00e9pendant sans enseigne","adresse":"10 Rue d'Abainville, 55130 Houdelaincourt","gazole_maj":"2023-12-23T20:39:35+01:00","gazole_prix":1.829,"sp95_maj":"2023-12-23T20:39:36+01:00","sp95_prix":1.899,"e85_maj":null,"e85_prix":null,"gplc_maj":null,"gplc_prix":null,"e10_maj":null,"e10_prix":null,"sp98_maj":"2023-12-23T20:39:36+01:00","sp98_prix":1.969,"pop":"R"},{"lat":44.458,"lon":6.05,"brand":null,"adresse":"Av de Provence, 5130 Tallard","gazole_maj":"2024-02-23T08:46:07+01:00","gazole_prix":1.829,"sp95_maj":null,"sp95_prix":null,"e85_maj":"2023-10-11T09:45:28+02:00","e85_prix":0.999,"gplc_maj":null,"gplc_prix":null,"e10_maj":"2024-02-23T08:46:08+01:00","e10_prix":1.839,"sp98_maj":"2024-02-23T08:46:08+01:00","sp98_prix":1.929,"pop":"R"},{"lat":49.422,"lon":1.978,"brand":null,"adresse":"RD 931 Lieu dit \"Bois du Renard\", 60650 Saint-Paul","gazole_maj":"2024-02-26T10:00:52+01:00","gazole_prix":1.775,"sp95_maj":null,"sp95_prix":null,"e85_maj":"2024-01-08T06:49:59+01:00","e85_prix":0.848,"gplc_maj":null,"gplc_prix":null,"e10_maj":"2024-02-26T10:01:12+01:00","e10_prix":1.819,"sp98_maj":"2024-02-26T10:01:13+01:00","sp98_prix":1.879,"pop":"R"},{"lat":43.27,"lon":-0.201,"brand":"Intermarch\u00e9","adresse":"ZAC PYRENEES EST BEARN, 64420 Nousty","gazole_maj":"2024-02-16T20:08:05+01:00","gazole_prix":1.846,"sp95_maj":"2024-02-16T20:08:05+01:00","sp95_prix":1.879,"e85_maj":"2024-01-31T10:03:33+01:00","e85_prix":1.019,"gplc_maj":null,"gplc_prix":null,"e10_maj":"2024-02-16T20:08:05+01:00","e10_prix":1.831,"sp98_maj":"2024-02-16T20:08:05+01:00","sp98_prix":1.949,"pop":"R"},{"lat":46.7957,"lon":-2.0495,"brand":null,"adresse":"Rue de la Rivi\u00e8re, 85160 Saint-Jean-de-Monts","gazole_maj":"2024-02-21T10:34:44+01:00","gazole_prix":1.755,"sp95_maj":null,"sp95_prix":null,"e85_maj":null,"e85_prix":null,"gplc_maj":null,"gplc_prix":null,"e10_maj":"2024-02-15T11:17:47+01:00","e10_prix":1.77,"sp98_maj":"2024-02-19T17:50:11+01:00","sp98_prix":1.854,"pop":"R"},{"lat":45.8954,"lon":3.2116,"brand":"Intermarch\u00e9","adresse":"ROUTE DE RIOM, 63720 Ennezat","gazole_maj":"2024-02-21T12:22:44+01:00","gazole_prix":1.791,"sp95_maj":null,"sp95_prix":null,"e85_maj":null,"e85_prix":null,"gplc_maj":null,"gplc_prix":null,"e10_maj":"2024-02-23T12:47:55+01:00","e10_prix":1.831,"sp98_maj":"2024-02-26T14:37:05+01:00","sp98_prix":1.919,"pop":"R"},{"lat":45.079,"lon":2.937,"brand":"Ind\u00e9pendant sans enseigne","adresse":"38 route du lioran, 15300 Ussel","gazole_maj":"2024-02-13T15:24:09+01:00","gazole_prix":1.85,"sp95_maj":"2024-02-13T15:24:10+01:00","sp95_prix":1.89,"e85_maj":null,"e85_prix":null,"gplc_maj":null,"gplc_prix":null,"e10_maj":null,"e10_prix":null,"sp98_maj":null,"sp98_prix":null,"pop":"R"},{"lat":47.972,"lon":0.556,"brand":"Syst\u00e8me U","adresse":"129 RUE NATIONALE, 72440 Bouloire","gazole_maj":"2024-02-23T12:42:40+01:00","gazole_prix":1.779,"sp95_maj":"2024-02-23T12:42:40+01:00","sp95_prix":1.839,"e85_maj":null,"e85_prix":null,"gplc_maj":null,"gplc_prix":null,"e10_maj":null,"e10_prix":null,"sp98_maj":"2024-02-23T12:42:41+01:00","sp98_prix":1.879,"pop":"R"},{"lat":43.708,"lon":5.2,"brand":"Intermarch\u00e9","adresse":"Avenue du Pont Royal, 13370 Mallemort","gazole_maj":"2024-02-28T10:09:19+01:00","gazole_prix":1.76,"sp95_maj":null,"sp95_prix":null,"e85_maj":null,"e85_prix":null,"gplc_maj":null,"gplc_prix":null,"e10_maj":"2024-02-26T09:30:00+01:00","e10_prix":1.799,"sp98_maj":"2024-02-26T09:30:00+01:00","sp98_prix":1.899,"pop":"R"},{"lat":48.274,"lon":-2.1865,"brand":"Esso","adresse":"KERGOUET, 22350 Saint-Jouan-de-l'Isle","gazole_maj":"2024-02-21T10:36:13+01:00","gazole_prix":1.819,"sp95_maj":null,"sp95_prix":null,"e85_maj":null,"e85_prix":null,"gplc_maj":null,"gplc_prix":null,"e10_maj":"2024-02-16T10:45:00+01:00","e10_prix":1.849,"sp98_maj":"2024-02-16T10:45:00+01:00","sp98_prix":1.949,"pop":"A"},{"lat":46.1663,"lon":1.6484,"brand":"Elan","adresse":"ZA les bois verts, 23240 Le Grand-Bourg","gazole_maj":"2024-02-23T09:54:05+01:00","gazole_prix":1.8,"sp95_maj":"2024-02-19T13:26:09+01:00","sp95_prix":1.865,"e85_maj":"2024-01-04T10:25:19+01:00","e85_prix":0.949,"gplc_maj":null,"gplc_prix":null,"e10_maj":null,"e10_prix":null,"sp98_maj":null,"sp98_prix":null,"pop":"R"},{"lat":47.373,"lon":-1.194,"brand":"Leclerc","adresse":"Espace 23 SAINT-GEREON, 44150 Ancenis-Saint-G\u00e9r\u00e9on","gazole_maj":"2024-02-29T10:50:00+01:00","gazole_prix":1.739,"sp95_maj":"2024-02-29T10:50:00+01:00","sp95_prix":1.807,"e85_maj":"2024-02-29T10:50:00+01:00","e85_prix":0.859,"gplc_maj":null,"gplc_prix":null,"e10_maj":"2024-02-29T10:50:00+01:00","e10_prix":1.751,"sp98_maj":"2024-02-29T10:50:00+01:00","sp98_prix":1.836,"pop":"R"},{"lat":43.5658,"lon":6.2912,"brand":null,"adresse":"2940, route de Draguignan, 83690 Villecroze","gazole_maj":null,"gazole_prix":null,"sp95_maj":null,"sp95_prix":null,"e85_maj":null,"e85_prix":null,"gplc_maj":null,"gplc_prix":null,"e10_maj":null,"e10_prix":null,"sp98_maj":null,"sp98_prix":null,"pop":"R"},{"lat":47.816,"lon":5.223,"brand":null,"adresse":"A31 Aire de Langres Perrogney, 52160 Perrogney-les-Fontaines","gazole_maj":"2024-02-23T07:00:00+01:00","gazole_prix":1.989,"sp95_maj":null,"sp95_prix":null,"e85_maj":"2024-02-23T07:00:00+01:00","e85_prix":1.109,"gplc_maj":"2024-02-23T07:00:00+01:00","gplc_prix":1.083,"e10_maj":"2024-02-23T07:00:00+01:00","e10_prix":2.019,"sp98_maj":"2024-02-23T07:00:00+01:00","sp98_prix":2.119,"pop":"A"},{"lat":48.2922,"lon":2.3973,"brand":"Intermarch\u00e9","adresse":"21 rue de Vauluizard, 45330 Le Malesherbois","gazole_maj":"2024-02-27T18:25:36+01:00","gazole_prix":1.799,"sp95_maj":null,"sp95_prix":null,"e85_maj":"2024-02-27T18:25:36+01:00","e85_prix":0.848,"gplc_maj":null,"gplc_prix":null,"e10_maj":"2024-02-27T18:25:36+01:00","e10_prix":1.789,"sp98_maj":"2024-02-27T18:25:36+01:00","sp98_prix":1.879,"pop":"R"},{"lat":41.953,"lon":8.782,"brand":"BP","adresse":"mezzavia centre rn 194, 20090 Ajaccio","gazole_maj":"2024-02-27T15:32:58+01:00","gazole_prix":1.869,"sp95_maj":"2024-02-27T15:32:58+01:00","sp95_prix":1.919,"e85_maj":null,"e85_prix":null,"gplc_maj":null,"gplc_prix":null,"e10_maj":null,"e10_prix":null,"sp98_maj":null,"sp98_prix":null,"pop":"R"},{"lat":44.429,"lon":4.712,"brand":null,"adresse":"RN-7, 26290 Donz\u00e8re","gazole_maj":"2024-02-29T01:01:00+01:00","gazole_prix":1.775,"sp95_maj":null,"sp95_prix":null,"e85_maj":"2024-02-29T01:01:00+01:00","e85_prix":0.899,"gplc_maj":null,"gplc_prix":null,"e10_maj":"2024-02-29T01:01:00+01:00","e10_prix":1.822,"sp98_maj":"2024-02-29T01:01:00+01:00","sp98_prix":1.942,"pop":"R"},{"lat":50.7312,"lon":2.5437,"brand":"Total","adresse":"Rue Notre-Dame, 59190 Hazebrouck","gazole_maj":"2024-02-27T20:12:46+01:00","gazole_prix":1.847,"sp95_maj":null,"sp95_prix":null,"e85_maj":null,"e85_prix":null,"gplc_maj":null,"gplc_prix":null,"e10_maj":"2024-02-26T20:16:35+01:00","e10_prix":1.862,"sp98_maj":"2024-02-27T20:12:47+01:00","sp98_prix":1.972,"pop":"R"},{"lat":48.8963,"lon":-0.1924,"brand":"Carrefour Market","adresse":"33 RUE GEORGES CLEMENCEAU, 14700 Falaise","gazole_maj":"2024-02-23T11:26:46+01:00","gazole_prix":1.798,"sp95_maj":"2024-02-23T11:26:46+01:00","sp95_prix":1.854,"e85_maj":null,"e85_prix":null,"gplc_maj":null,"gplc_prix":null,"e10_maj":null,"e10_prix":null,"sp98_maj":"2024-02-23T11:26:47+01:00","sp98_prix":1.898,"pop":"R"},{"lat":45.3595,"lon":1.9373,"brand":null,"adresse":"AIRE DE LA CORREZE - AUTOROUTE A8, 19800 Vitrac-sur-Montane","gazole_maj":"2024-02-27T10:52:00+01:00","gazole_prix":1.925,"sp95_maj":null,"sp95_prix":null,"e85_maj":null,"e85_prix":null,"gplc_maj":null,"gplc_prix":null,"e10_maj":"2024-02-27T10:52:00+01:00","e10_prix":1.942,"sp98_maj":"2024-02-27T10:52:01+01:00","sp98_prix":1.99,"pop":"A"},{"lat":43.0847,"lon":6.1486,"brand":null,"adresse":"CD 97 LE PALYVESTRE, 83400 Hy\u00e8res","gazole_maj":"2024-02-29T01:01:00+01:00","gazole_prix":1.831,"sp95_maj":null,"sp95_prix":null,"e85_maj":"2024-02-29T01:01:00+01:00","e85_prix":0.919,"gplc_maj":null,"gplc_prix":null,"e10_maj":"2024-02-29T01:01:00+01:00","e10_prix":1.88,"sp98_maj":"2024-02-29T01:01:00+01:00","sp98_prix":1.99,"pop":"R"},{"lat":48.5267,"lon":7.599,"brand":"Total","adresse":"4 Route de Schirmeck, 67120 Duppigheim","gazole_maj":"2024-02-22T13:05:12+01:00","gazole_prix":1.89,"sp95_maj":null,"sp95_prix":null,"e85_maj":"2024-02-09T11:08:15+01:00","e85_prix":0.95,"gplc_maj":null,"gplc_prix":null,"e10_maj":"2024-02-14T14:00:51+01:00","e10_prix":1.89,"sp98_maj":"2024-02-14T14:00:52+01:00","sp98_prix":1.99,"pop":"R"},{"lat":43.3363,"lon":1.2449,"brand":"Shell","adresse":"AUT A 64  AIRE DE VOLVESTRE, 31410 Capens","gazole_maj":"2024-02-29T10:30:00+01:00","gazole_prix":1.986,"sp95_maj":null,"sp95_prix":null,"e85_maj":null,"e85_prix":null,"gplc_maj":"2024-02-29T10:30:00+01:00","gplc_prix":1.408,"e10_maj":"2024-02-29T10:30:00+01:00","e10_prix":2.067,"sp98_maj":"2024-02-29T10:30:00+01:00","sp98_prix":2.207,"pop":"A"},{"lat":50.874,"lon":2.075,"brand":"Carrefour Market","adresse":"1000 AVENUE DES ALLIES, 62370 Audruicq","gazole_maj":"2024-02-23T18:53:29+01:00","gazole_prix":1.799,"sp95_maj":"2024-02-21T09:30:30+01:00","sp95_prix":1.879,"e85_maj":null,"e85_prix":null,"gplc_maj":null,"gplc_prix":null,"e10_maj":null,"e10_prix":null,"sp98_maj":"2024-02-21T09:30:30+01:00","sp98_prix":1.945,"pop":"R"},{"lat":50.477,"lon":2.534,"brand":null,"adresse":"864 RUE DE LA REPUBLIQUE - RN 41, 62700 Bruay-la-Buissi\u00e8re","gazole_maj":"2024-02-29T01:01:00+01:00","gazole_prix":1.863,"sp95_maj":null,"sp95_prix":null,"e85_maj":"2024-02-29T01:01:00+01:00","e85_prix":0.919,"gplc_maj":"2024-02-29T01:01:00+01:00","gplc_prix":0.999,"e10_maj":"2024-02-29T01:01:00+01:00","e10_prix":1.885,"sp98_maj":"2024-02-29T01:01:00+01:00","sp98_prix":1.99,"pop":"R"},{"lat":47.346,"lon":0.643,"brand":"Syst\u00e8me U","adresse":"Boulevard des Bretonni\u00e8res, 37300 Jou\u00e9-l\u00e8s-Tours","gazole_maj":"2024-02-28T09:16:39+01:00","gazole_prix":1.769,"sp95_maj":"2024-02-12T08:59:40+01:00","sp95_prix":1.829,"e85_maj":null,"e85_prix":null,"gplc_maj":null,"gplc_prix":null,"e10_maj":null,"e10_prix":null,"sp98_maj":"2024-02-24T08:47:35+01:00","sp98_prix":1.889,"pop":"R"},{"lat":47.843,"lon":-0.971,"brand":"Syst\u00e8me U","adresse":"Z.A. LA PEPINIERE, 53400 Craon","gazole_maj":"2024-02-29T08:00:00+01:00","gazole_prix":1.747,"sp95_maj":null,"sp95_prix":null,"e85_maj":"2024-02-26T08:00:00+01:00","e85_prix":0.889,"gplc_maj":"2024-01-10T08:00:00+01:00","gplc_prix":0.969,"e10_maj":"2024-02-29T08:00:00+01:00","e10_prix":1.78,"sp98_maj":"2024-02-26T08:00:00+01:00","sp98_prix":1.869,"pop":"R"},{"lat":48.742,"lon":-0.563,"brand":"Leclerc","adresse":"93 Rue de la Chauss\u00e9e, 61100 Flers","gazole_maj":"2024-02-29T01:00:00+01:00","gazole_prix":1.759,"sp95_maj":"2024-02-27T01:00:00+01:00","sp95_prix":1.816,"e85_maj":"2024-02-27T01:00:00+01:00","e85_prix":0.838,"gplc_maj":"2024-01-02T01:00:00+01:00","gplc_prix":0.97,"e10_maj":"2024-02-29T01:00:00+01:00","e10_prix":1.798,"sp98_maj":null,"sp98_prix":null,"pop":"R"},{"lat":48.196,"lon":-4.091,"brand":"Intermarch\u00e9","adresse":"Grand Rue, 29150 Ch\u00e2teaulin","gazole_maj":"2024-02-23T11:55:07+01:00","gazole_prix":1.749,"sp95_maj":null,"sp95_prix":null,"e85_maj":null,"e85_prix":null,"gplc_maj":null,"gplc_prix":null,"e10_maj":"2024-02-23T11:55:08+01:00","e10_prix":1.779,"sp98_maj":"2024-02-23T11:55:08+01:00","sp98_prix":1.849,"pop":"R"},{"lat":45.838,"lon":1.219,"brand":"Intermarch\u00e9","adresse":"86 Rue Abbe Pierre, 87100 Limoges","gazole_maj":"2024-02-26T09:32:58+01:00","gazole_prix":1.799,"sp95_maj":null,"sp95_prix":null,"e85_maj":"2024-02-26T09:32:58+01:00","e85_prix":0.848,"gplc_maj":null,"gplc_prix":null,"e10_maj":"2024-02-26T09:32:59+01:00","e10_prix":1.809,"sp98_maj":"2024-02-26T09:32:59+01:00","sp98_prix":1.879,"pop":"R"},{"lat":43.463,"lon":5.407,"brand":null,"adresse":"341 AV DE LA CROIX D OR, 13320 Bouc-Bel-Air","gazole_maj":"2024-02-29T01:01:00+01:00","gazole_prix":1.859,"sp95_maj":null,"sp95_prix":null,"e85_maj":"2024-02-29T01:01:00+01:00","e85_prix":0.919,"gplc_maj":null,"gplc_prix":null,"e10_maj":"2024-02-29T01:01:00+01:00","e10_prix":1.865,"sp98_maj":"2024-02-29T01:01:00+01:00","sp98_prix":1.975,"pop":"R"},{"lat":45.597,"lon":5.095,"brand":"Carrefour Contact","adresse":"2 chemin de grange neuve, 38790 Di\u00e9moz","gazole_maj":"2024-02-29T16:41:26+01:00","gazole_prix":1.758,"sp95_maj":null,"sp95_prix":null,"e85_maj":null,"e85_prix":null,"gplc_maj":null,"gplc_prix":null,"e10_maj":"2024-02-29T16:41:27+01:00","e10_prix":1.875,"sp98_maj":"2024-02-29T16:41:27+01:00","sp98_prix":1.945,"pop":"R"},{"lat":43.671,"lon":4.622,"brand":null,"adresse":"N\u00b01 AV BACHAGA SAID BOUALEM, 13200 Arles","gazole_maj":"2024-02-29T01:01:00+01:00","gazole_prix":1.879,"sp95_maj":null,"sp95_prix":null,"e85_maj":null,"e85_prix":null,"gplc_maj":"2024-02-29T01:01:00+01:00","gplc_prix":1.029,"e10_maj":"2024-02-29T01:01:00+01:00","e10_prix":1.919,"sp98_maj":"2024-02-29T01:01:00+01:00","sp98_prix":1.99,"pop":"R"},{"lat":50.724,"lon":2.74,"brand":"Leclerc","adresse":"Avenue des Nations Unies, 59270 Bailleul","gazole_maj":"2024-02-29T11:52:00+01:00","gazole_prix":1.751,"sp95_maj":null,"sp95_prix":null,"e85_maj":"2024-02-29T11:52:00+01:00","e85_prix":0.827,"gplc_maj":null,"gplc_prix":null,"e10_maj":"2024-02-29T11:52:00+01:00","e10_prix":1.776,"sp98_maj":"2024-02-29T11:52:00+01:00","sp98_prix":1.855,"pop":"R"},{"lat":44.394,"lon":2.603,"brand":"Leclerc","adresse":"l'Estr\u00e9niol - P\u00f4le Comtal Sud, 12850 Onet-le-Ch\u00e2teau","gazole_maj":"2024-02-23T10:20:42+01:00","gazole_prix":1.778,"sp95_maj":"2024-02-20T10:14:23+01:00","sp95_prix":1.869,"e85_maj":null,"e85_prix":null,"gplc_maj":"2023-11-22T11:25:34+01:00","gplc_prix":0.989,"e10_maj":"2024-02-23T10:20:42+01:00","e10_prix":1.798,"sp98_maj":null,"sp98_prix":null,"pop":"R"},{"lat":48.785,"lon":2.06,"brand":null,"adresse":"VOIE E8 LES SAULES - Avenue du 8 Mai 1945, 78280 Guyancourt","gazole_maj":"2024-02-29T01:01:00+01:00","gazole_prix":1.811,"sp95_maj":null,"sp95_prix":null,"e85_maj":"2024-02-29T01:01:00+01:00","e85_prix":0.899,"gplc_maj":null,"gplc_prix":null,"e10_maj":"2024-02-29T01:01:00+01:00","e10_prix":1.836,"sp98_maj":"2024-02-29T01:01:00+01:00","sp98_prix":1.948,"pop":"R"},{"lat":45.815,"lon":1.269,"brand":"Intermarch\u00e9","adresse":"RUE BERNART DE VENTADOUR, 87000 Limoges","gazole_maj":"2024-02-29T09:27:08+01:00","gazole_prix":1.777,"sp95_maj":"2024-02-29T09:27:09+01:00","sp95_prix":1.849,"e85_maj":null,"e85_prix":null,"gplc_maj":null,"gplc_prix":null,"e10_maj":null,"e10_prix":null,"sp98_maj":"2024-02-29T09:27:09+01:00","sp98_prix":1.894,"pop":"R"},{"lat":45.56,"lon":2.62,"brand":null,"adresse":"route de Bort, 63690 Tauves","gazole_maj":null,"gazole_prix":null,"sp95_maj":null,"sp95_prix":null,"e85_maj":null,"e85_prix":null,"gplc_maj":null,"gplc_prix":null,"e10_maj":null,"e10_prix":null,"sp98_maj":null,"sp98_prix":null,"pop":"R"},{"lat":46.431,"lon":0.884,"brand":"Syst\u00e8me U","adresse":"106 Avenue Victor Hugo, 86500 Montmorillon","gazole_maj":"2024-02-21T11:02:55+01:00","gazole_prix":1.771,"sp95_maj":null,"sp95_prix":null,"e85_maj":null,"e85_prix":null,"gplc_maj":null,"gplc_prix":null,"e10_maj":"2024-02-21T11:02:55+01:00","e10_prix":1.778,"sp98_maj":"2024-02-21T11:02:56+01:00","sp98_prix":1.851,"pop":"R"},{"lat":43.383,"lon":5.706,"brand":"Syst\u00e8me U","adresse":"Avenue Augustin Juramy, 83640 Saint-Zacharie","gazole_maj":"2024-02-29T10:46:11+01:00","gazole_prix":1.735,"sp95_maj":"2024-02-27T09:11:14+01:00","sp95_prix":1.829,"e85_maj":"2024-02-26T16:48:02+01:00","e85_prix":0.879,"gplc_maj":null,"gplc_prix":null,"e10_maj":"2024-02-28T09:47:12+01:00","e10_prix":1.779,"sp98_maj":"2024-02-28T09:47:12+01:00","sp98_prix":1.869,"pop":"R"},{"lat":49.652,"lon":1.728,"brand":null,"adresse":"2 RUE ALAVOINE, 60220 Formerie","gazole_maj":"2024-02-29T09:20:18+01:00","gazole_prix":1.829,"sp95_maj":"2024-02-28T09:10:00+01:00","sp95_prix":1.95,"e85_maj":"2024-02-28T08:57:33+01:00","e85_prix":0.956,"gplc_maj":null,"gplc_prix":null,"e10_maj":null,"e10_prix":null,"sp98_maj":"2024-02-28T08:57:33+01:00","sp98_prix":1.99,"pop":"R"},{"lat":48.971,"lon":2.192,"brand":"Esso","adresse":"27, 29, 31, Boulevard Clemenceau, 95240 Cormeilles-en-Parisis","gazole_maj":"2024-02-29T09:18:01+01:00","gazole_prix":1.938,"sp95_maj":null,"sp95_prix":null,"e85_maj":null,"e85_prix":null,"gplc_maj":null,"gplc_prix":null,"e10_maj":"2024-02-29T09:18:01+01:00","e10_prix":1.946,"sp98_maj":"2024-02-29T09:18:01+01:00","sp98_prix":1.99,"pop":"R"},{"lat":45.7805,"lon":3.1363,"brand":"Leclerc","adresse":"2 Rue Georges Besse, 63100 Clermont-Ferrand","gazole_maj":"2024-02-26T08:18:05+01:00","gazole_prix":1.759,"sp95_maj":"2024-02-22T08:27:30+01:00","sp95_prix":1.878,"e85_maj":"2024-02-15T08:11:27+01:00","e85_prix":0.849,"gplc_maj":null,"gplc_prix":null,"e10_maj":"2024-02-16T08:16:30+01:00","e10_prix":1.819,"sp98_maj":"2024-02-28T08:25:30+01:00","sp98_prix":1.909,"pop":"R"},{"lat":45.8743,"lon":-0.3114,"brand":"Syst\u00e8me U","adresse":"RUE MAXIME BOURDEAU, 17160 Matha","gazole_maj":"2024-02-15T14:44:59+01:00","gazole_prix":1.817,"sp95_maj":null,"sp95_prix":null,"e85_maj":null,"e85_prix":null,"gplc_maj":null,"gplc_prix":null,"e10_maj":"2024-02-15T14:44:59+01:00","e10_prix":1.815,"sp98_maj":"2024-02-15T14:44:59+01:00","sp98_prix":1.889,"pop":"R"},{"lat":46.128,"lon":5.54,"brand":"Ind\u00e9pendant sans enseigne","adresse":"2 Rue de l'\u00c9galit\u00e9, 1430 Maillat","gazole_maj":"2024-02-26T10:13:53+01:00","gazole_prix":1.879,"sp95_maj":"2024-02-16T12:30:00+01:00","sp95_prix":1.979,"e85_maj":null,"e85_prix":null,"gplc_maj":null,"gplc_prix":null,"e10_maj":"2024-02-26T10:13:53+01:00","e10_prix":1.929,"sp98_maj":null,"sp98_prix":null,"pop":"R"},{"lat":47.743,"lon":-1.166,"brand":"Syst\u00e8me U","adresse":"5 RUE DE LA GRAND PREE, 49420 Ombr\u00e9e d'Anjou","gazole_maj":"2024-02-27T15:12:37+01:00","gazole_prix":1.756,"sp95_maj":"2024-02-23T16:38:56+01:00","sp95_prix":1.829,"e85_maj":"2024-02-23T16:38:56+01:00","e85_prix":0.899,"gplc_maj":null,"gplc_prix":null,"e10_maj":"2024-02-27T15:12:37+01:00","e10_prix":1.769,"sp98_maj":null,"sp98_prix":null,"pop":"R"},{"lat":49.072,"lon":3.638,"brand":"Carrefour Market","adresse":"rue du faubourg chavenay, 51700 Dormans","gazole_maj":"2024-02-28T14:31:23+01:00","gazole_prix":1.806,"sp95_maj":"2024-02-28T14:31:24+01:00","sp95_prix":1.889,"e85_maj":null,"e85_prix":null,"gplc_maj":null,"gplc_prix":null,"e10_maj":null,"e10_prix":null,"sp98_maj":"2024-02-28T14:31:24+01:00","sp98_prix":1.937,"pop":"R"},{"lat":46.25,"lon":5.644,"brand":"Carrefour Market","adresse":"Rue Brillat-Savarin, 1100 Oyonnax","gazole_maj":"2024-02-28T12:50:46+01:00","gazole_prix":1.769,"sp95_maj":"2024-02-28T12:50:46+01:00","sp95_prix":1.869,"e85_maj":null,"e85_prix":null,"gplc_maj":null,"gplc_prix":null,"e10_maj":null,"e10_prix":null,"sp98_maj":"2024-02-28T12:50:46+01:00","sp98_prix":1.909,"pop":"R"},{"lat":48.198,"lon":1.889,"brand":"Total","adresse":"19, AVENUE DU GENERAL DE GAULLE, 28310 Janville-en-Beauce","gazole_maj":"2024-02-29T09:37:38+01:00","gazole_prix":1.879,"sp95_maj":"2024-02-23T19:46:34+01:00","sp95_prix":1.946,"e85_maj":null,"e85_prix":null,"gplc_maj":null,"gplc_prix":null,"e10_maj":null,"e10_prix":null,"sp98_maj":null,"sp98_prix":null,"pop":"R"},{"lat":43.34,"lon":3.264,"brand":null,"adresse":"ZAC de Montimaran - Bretelle Est Autoroute A9, 34500 B\u00e9ziers","gazole_maj":"2024-02-29T09:53:00+01:00","gazole_prix":1.775,"sp95_maj":null,"sp95_prix":null,"e85_maj":null,"e85_prix":null,"gplc_maj":"2024-02-29T09:53:00+01:00","gplc_prix":1.094,"e10_maj":"2024-02-29T09:53:00+01:00","e10_prix":1.829,"sp98_maj":null,"sp98_prix":null,"pop":"R"},{"lat":46.9853,"lon":-0.4531,"brand":null,"adresse":"26 av camille jouffrault - Argenton les vall\u00e9es, 79150 Argentonnay","gazole_maj":"2024-02-14T09:57:19+01:00","gazole_prix":1.825,"sp95_maj":"2024-02-14T09:57:19+01:00","sp95_prix":1.84,"e85_maj":null,"e85_prix":null,"gplc_maj":null,"gplc_prix":null,"e10_maj":null,"e10_prix":null,"sp98_maj":"2024-02-14T09:57:19+01:00","sp98_prix":1.882,"pop":"R"},{"lat":43.2303,"lon":-0.8739,"brand":"Intermarch\u00e9","adresse":"Avenue d'Euskual-Herria, 64130 Ch\u00e9raute","gazole_maj":"2024-02-27T10:37:25+01:00","gazole_prix":1.79,"sp95_maj":"2024-02-27T10:37:26+01:00","sp95_prix":1.863,"e85_maj":"2024-02-12T10:34:29+01:00","e85_prix":0.848,"gplc_maj":null,"gplc_prix":null,"e10_maj":"2024-02-27T10:37:26+01:00","e10_prix":1.827,"sp98_maj":"2024-02-22T15:28:28+01:00","sp98_prix":1.884,"pop":"R"},{"lat":46.304,"lon":-0.438,"brand":"Intermarch\u00e9","adresse":"358 Route d'Aiffres, 79000 Niort","gazole_maj":"2024-02-29T09:30:00+01:00","gazole_prix":1.724,"sp95_maj":"2024-02-29T09:30:00+01:00","sp95_prix":1.809,"e85_maj":"2024-02-27T10:30:00+01:00","e85_prix":0.849,"gplc_maj":null,"gplc_prix":null,"e10_maj":"2024-02-29T09:30:00+01:00","e10_prix":1.784,"sp98_maj":"2024-02-29T09:30:00+01:00","sp98_prix":1.849,"pop":"R"},{"lat":46.33,"lon":-0.469,"brand":"Leclerc","adresse":"68 Rue de Fontenay, 79000 Niort","gazole_maj":"2024-02-28T11:00:00+01:00","gazole_prix":1.744,"sp95_maj":"2024-02-28T11:00:00+01:00","sp95_prix":1.821,"e85_maj":"2024-02-19T17:00:00+01:00","e85_prix":0.861,"gplc_maj":null,"gplc_prix":null,"e10_maj":null,"e10_prix":null,"sp98_maj":"2024-02-28T11:00:00+01:00","sp98_prix":1.849,"pop":"R"},{"lat":50.6649,"lon":3.1827,"brand":null,"adresse":"188 AV DU GENERAL DE GAULLE, 59510 Hem","gazole_maj":"2024-02-29T01:01:00+01:00","gazole_prix":1.777,"sp95_maj":null,"sp95_prix":null,"e85_maj":"2024-02-29T01:01:00+01:00","e85_prix":0.899,"gplc_maj":"2024-02-29T01:01:00+01:00","gplc_prix":0.969,"e10_maj":"2024-02-29T01:01:00+01:00","e10_prix":1.802,"sp98_maj":"2024-02-29T01:01:00+01:00","sp98_prix":1.899,"pop":"R"},{"lat":46.111,"lon":-1.103,"brand":"Carrefour","adresse":"Route de Rochefort, 17690 Angoulins","gazole_maj":"2024-02-29T10:33:43+01:00","gazole_prix":1.754,"sp95_maj":"2024-02-29T10:33:43+01:00","sp95_prix":1.859,"e85_maj":"2024-02-29T10:33:43+01:00","e85_prix":0.879,"gplc_maj":"2024-02-29T10:33:44+01:00","gplc_prix":0.931,"e10_maj":"2024-02-29T13:59:59+01:00","e10_prix":1.783,"sp98_maj":"2024-02-29T10:33:44+01:00","sp98_prix":1.913,"pop":"R"},{"lat":48.657,"lon":2.384,"brand":null,"adresse":"17 ROUTE DE CORBEIL, 91350 Grigny","gazole_maj":"2024-02-29T01:01:00+01:00","gazole_prix":1.799,"sp95_maj":null,"sp95_prix":null,"e85_maj":null,"e85_prix":null,"gplc_maj":null,"gplc_prix":null,"e10_maj":"2024-02-29T01:01:00+01:00","e10_prix":1.831,"sp98_maj":"2024-02-29T01:01:00+01:00","sp98_prix":1.959,"pop":"R"},{"lat":49.57,"lon":3.621,"brand":"Esso Express","adresse":"16 Boulevard Pierre Brossolette, 2000 Laon","gazole_maj":"2024-02-27T08:01:00+01:00","gazole_prix":1.872,"sp95_maj":null,"sp95_prix":null,"e85_maj":"2024-02-27T08:01:00+01:00","e85_prix":0.899,"gplc_maj":null,"gplc_prix":null,"e10_maj":"2024-02-27T08:01:00+01:00","e10_prix":1.885,"sp98_maj":"2024-02-27T08:01:00+01:00","sp98_prix":1.965,"pop":"R"},{"lat":45.2907,"lon":4.1696,"brand":"Carrefour Market","adresse":"rue jean martouret, 43120 Monistrol-sur-Loire","gazole_maj":"2024-02-29T09:11:45+01:00","gazole_prix":1.799,"sp95_maj":"2024-02-29T09:11:45+01:00","sp95_prix":1.859,"e85_maj":null,"e85_prix":null,"gplc_maj":null,"gplc_prix":null,"e10_maj":null,"e10_prix":null,"sp98_maj":"2024-02-29T09:11:46+01:00","sp98_prix":1.899,"pop":"R"},{"lat":44.192,"lon":5.945,"brand":"NEANT","adresse":"10 AVENUE DE LA LIBERATION, 4200 Sisteron","gazole_maj":"2024-02-26T10:09:55+01:00","gazole_prix":1.775,"sp95_maj":null,"sp95_prix":null,"e85_maj":null,"e85_prix":null,"gplc_maj":null,"gplc_prix":null,"e10_maj":"2024-02-23T06:52:50+01:00","e10_prix":1.805,"sp98_maj":"2024-02-23T06:53:29+01:00","sp98_prix":1.897,"pop":"R"},{"lat":45.737,"lon":4.869,"brand":null,"adresse":"131 RUE MARIUS BERLIET, 69008 Lyon","gazole_maj":"2024-02-29T01:01:00+01:00","gazole_prix":1.799,"sp95_maj":null,"sp95_prix":null,"e85_maj":"2024-02-29T01:01:00+01:00","e85_prix":0.899,"gplc_maj":null,"gplc_prix":null,"e10_maj":"2024-02-29T01:01:00+01:00","e10_prix":1.846,"sp98_maj":"2024-02-29T01:01:00+01:00","sp98_prix":1.938,"pop":"R"},{"lat":48.132,"lon":-1.223,"brand":"Intermarch\u00e9 Contact","adresse":"1 Boulevard Georges Charpak, 35500 Vitr\u00e9","gazole_maj":"2024-02-28T09:47:29+01:00","gazole_prix":1.752,"sp95_maj":null,"sp95_prix":null,"e85_maj":null,"e85_prix":null,"gplc_maj":null,"gplc_prix":null,"e10_maj":"2024-02-28T09:47:29+01:00","e10_prix":1.777,"sp98_maj":"2024-02-28T09:47:30+01:00","sp98_prix":1.852,"pop":"R"},{"lat":45.305,"lon":5.623,"brand":null,"adresse":"RN 75 CRUE DE MOIRANS, 38340 Voreppe","gazole_maj":"2024-02-29T01:01:00+01:00","gazole_prix":1.794,"sp95_maj":null,"sp95_prix":null,"e85_maj":"2024-02-29T01:01:00+01:00","e85_prix":0.899,"gplc_maj":null,"gplc_prix":null,"e10_maj":null,"e10_prix":null,"sp98_maj":null,"sp98_prix":null,"pop":"R"},{"lat":49.3502,"lon":0.0904,"brand":"Leclerc","adresse":"Route de Paris, 14800 Touques","gazole_maj":"2024-02-29T09:30:00+01:00","gazole_prix":1.759,"sp95_maj":"2024-02-29T09:30:00+01:00","sp95_prix":1.831,"e85_maj":null,"e85_prix":null,"gplc_maj":null,"gplc_prix":null,"e10_maj":"2024-02-29T09:30:00+01:00","e10_prix":1.792,"sp98_maj":"2024-02-29T09:30:00+01:00","sp98_prix":1.864,"pop":"R"},{"lat":42.622,"lon":2.436,"brand":"Intermarch\u00e9","adresse":"RN 116 60 AVENUE GUY MALE, 66500 Prades","gazole_maj":"2024-02-15T11:58:57+01:00","gazole_prix":1.809,"sp95_maj":"2024-02-15T11:58:58+01:00","sp95_prix":1.889,"e85_maj":null,"e85_prix":null,"gplc_maj":null,"gplc_prix":null,"e10_maj":"2024-02-15T11:58:58+01:00","e10_prix":1.849,"sp98_maj":"2024-02-15T11:58:58+01:00","sp98_prix":1.929,"pop":"R"},{"lat":46.875,"lon":-1.025,"brand":"Syst\u00e8me U","adresse":"AVENUE DE LA MAINE, 85500 Les Herbiers","gazole_maj":"2024-02-29T09:45:00+01:00","gazole_prix":1.734,"sp95_maj":null,"sp95_prix":null,"e85_maj":"2024-02-20T09:45:00+01:00","e85_prix":0.847,"gplc_maj":"2023-11-13T15:59:23+01:00","gplc_prix":0.959,"e10_maj":"2024-02-29T09:45:00+01:00","e10_prix":1.755,"sp98_maj":"2024-02-28T10:00:00+01:00","sp98_prix":1.831,"pop":"R"},{"lat":47.98,"lon":0.221,"brand":null,"adresse":"146 AVENUE DU DR JEAN MAC, 72100 Le Mans","gazole_maj":"2024-02-29T01:01:00+01:00","gazole_prix":1.786,"sp95_maj":null,"sp95_prix":null,"e85_maj":null,"e85_prix":null,"gplc_maj":"2024-02-29T01:01:00+01:00","gplc_prix":0.919,"e10_maj":"2024-02-29T01:01:00+01:00","e10_prix":1.791,"sp98_maj":null,"sp98_prix":null,"pop":"R"},{"lat":47.409,"lon":0.971,"brand":"Netto","adresse":"21 Avenue de Tours, 37400 Amboise","gazole_maj":"2024-02-20T16:36:37+01:00","gazole_prix":1.779,"sp95_maj":null,"sp95_prix":null,"e85_maj":null,"e85_prix":null,"gplc_maj":null,"gplc_prix":null,"e10_maj":"2024-02-20T16:36:38+01:00","e10_prix":1.783,"sp98_maj":null,"sp98_prix":null,"pop":"R"},{"lat":48.843,"lon":2.486,"brand":null,"adresse":"128, BOULEVARD DE STRASBOURG, 94130 Nogent-sur-Marne","gazole_maj":"2024-02-29T01:01:00+01:00","gazole_prix":1.957,"sp95_maj":null,"sp95_prix":null,"e85_maj":null,"e85_prix":null,"gplc_maj":null,"gplc_prix":null,"e10_maj":null,"e10_prix":null,"sp98_maj":null,"sp98_prix":null,"pop":"R"},{"lat":47.623,"lon":6.138,"brand":"Total","adresse":"18 Rue des Faines, 70000 Noidans-l\u00e8s-Vesoul","gazole_maj":"2024-02-29T10:38:54+01:00","gazole_prix":1.884,"sp95_maj":null,"sp95_prix":null,"e85_maj":null,"e85_prix":null,"gplc_maj":null,"gplc_prix":null,"e10_maj":"2024-02-27T10:27:01+01:00","e10_prix":1.923,"sp98_maj":"2024-02-14T10:12:18+01:00","sp98_prix":1.99,"pop":"R"},{"lat":47.571,"lon":-0.358,"brand":"Syst\u00e8me U","adresse":"Lieu-dit L'Aurore, 49140 Corz\u00e9","gazole_maj":"2024-02-27T13:22:56+01:00","gazole_prix":1.769,"sp95_maj":"2024-02-12T10:49:08+01:00","sp95_prix":1.839,"e85_maj":"2024-02-23T10:02:18+01:00","e85_prix":0.879,"gplc_maj":null,"gplc_prix":null,"e10_maj":null,"e10_prix":null,"sp98_maj":"2024-02-12T10:49:08+01:00","sp98_prix":1.869,"pop":"R"},{"lat":46.196,"lon":6.255,"brand":"G\u00e9ant","adresse":"14 Rue de la R\u00e9sistance, 74100 Annemasse","gazole_maj":"2024-02-29T10:27:24+01:00","gazole_prix":1.751,"sp95_maj":null,"sp95_prix":null,"e85_maj":null,"e85_prix":null,"gplc_maj":"2024-02-23T09:43:02+01:00","gplc_prix":0.949,"e10_maj":"2024-02-29T10:27:25+01:00","e10_prix":1.785,"sp98_maj":"2024-02-29T10:27:25+01:00","sp98_prix":1.884,"pop":"R"},{"lat":43.1873,"lon":3.0035,"brand":"Esso Express","adresse":"40 Boulevard Fr\u00e9d\u00e9ric Mistral, 11100 Narbonne","gazole_maj":"2024-02-27T08:01:00+01:00","gazole_prix":1.778,"sp95_maj":null,"sp95_prix":null,"e85_maj":"2024-02-27T08:01:00+01:00","e85_prix":0.913,"gplc_maj":null,"gplc_prix":null,"e10_maj":"2024-02-27T08:01:00+01:00","e10_prix":1.82,"sp98_maj":"2024-02-27T08:01:00+01:00","sp98_prix":1.9,"pop":"R"},{"lat":50.2976,"lon":3.9173,"brand":null,"adresse":"28 Rue Jean Jaur\u00e8s, 59750 Feignies","gazole_maj":"2024-01-30T10:02:12+01:00","gazole_prix":1.809,"sp95_maj":"2024-01-30T10:02:13+01:00","sp95_prix":1.895,"e85_maj":null,"e85_prix":null,"gplc_maj":null,"gplc_prix":null,"e10_maj":null,"e10_prix":null,"sp98_maj":"2023-12-19T09:09:29+01:00","sp98_prix":2.047,"pop":"R"},{"lat":49.404,"lon":1.11,"brand":null,"adresse":"57 BD INDUSTRIEL, 76300 Sotteville-l\u00e8s-Rouen","gazole_maj":"2024-02-29T01:01:00+01:00","gazole_prix":1.769,"sp95_maj":null,"sp95_prix":null,"e85_maj":null,"e85_prix":null,"gplc_maj":null,"gplc_prix":null,"e10_maj":"2024-02-29T01:01:00+01:00","e10_prix":1.792,"sp98_maj":"2024-02-29T01:01:00+01:00","sp98_prix":1.874,"pop":"R"},{"lat":48.3282,"lon":2.6873,"brand":null,"adresse":"RN 7, 77780 Bourron-Marlotte","gazole_maj":"2024-02-29T01:01:00+01:00","gazole_prix":1.789,"sp95_maj":null,"sp95_prix":null,"e85_maj":"2024-02-29T01:01:00+01:00","e85_prix":0.899,"gplc_maj":null,"gplc_prix":null,"e10_maj":"2024-02-29T01:01:00+01:00","e10_prix":1.809,"sp98_maj":"2024-02-29T01:01:00+01:00","sp98_prix":1.913,"pop":"R"},{"lat":49.8348,"lon":0.8597,"brand":"Casino","adresse":"LE BUQUET, 76740 La Gaillarde","gazole_maj":"2024-02-29T08:31:15+01:00","gazole_prix":1.746,"sp95_maj":null,"sp95_prix":null,"e85_maj":"2024-02-29T08:31:16+01:00","e85_prix":0.919,"gplc_maj":null,"gplc_prix":null,"e10_maj":"2024-02-29T08:31:16+01:00","e10_prix":1.774,"sp98_maj":"2024-02-29T08:31:16+01:00","sp98_prix":1.85,"pop":"R"},{"lat":49.479,"lon":2.868,"brand":null,"adresse":"ZAC DU GROS GRELOT, 60150 Thourotte","gazole_maj":"2024-02-29T10:54:04+01:00","gazole_prix":1.768,"sp95_maj":null,"sp95_prix":null,"e85_maj":"2024-02-29T10:54:04+01:00","e85_prix":0.847,"gplc_maj":null,"gplc_prix":null,"e10_maj":"2024-02-29T10:54:04+01:00","e10_prix":1.787,"sp98_maj":"2024-02-29T10:54:04+01:00","sp98_prix":1.873,"pop":"R"},{"lat":45.6084,"lon":4.0893,"brand":"Syst\u00e8me U","adresse":"ROUTE DE LYON, 42600 Savigneux","gazole_maj":"2024-02-23T09:56:35+01:00","gazole_prix":1.799,"sp95_maj":null,"sp95_prix":null,"e85_maj":"2024-01-19T10:00:31+01:00","e85_prix":0.849,"gplc_maj":null,"gplc_prix":null,"e10_maj":"2024-02-20T10:11:59+01:00","e10_prix":1.829,"sp98_maj":"2024-02-15T10:11:05+01:00","sp98_prix":1.899,"pop":"R"},{"lat":45.775,"lon":4.7943,"brand":null,"adresse":"111 RUE MARIETTON, 69009 Lyon","gazole_maj":"2024-02-29T01:01:00+01:00","gazole_prix":1.899,"sp95_maj":null,"sp95_prix":null,"e85_maj":null,"e85_prix":null,"gplc_maj":null,"gplc_prix":null,"e10_maj":"2024-02-29T01:01:00+01:00","e10_prix":1.929,"sp98_maj":"2024-02-29T01:01:00+01:00","sp98_prix":1.99,"pop":"R"},{"lat":42.7442,"lon":1.7856,"brand":null,"adresse":"ZA N20 ALLEE DU BOIS DES ESQUERS, 9110 Perles-et-Castelet","gazole_maj":"2024-02-26T10:17:28+01:00","gazole_prix":1.799,"sp95_maj":null,"sp95_prix":null,"e85_maj":null,"e85_prix":null,"gplc_maj":null,"gplc_prix":null,"e10_maj":"2024-02-20T15:30:12+01:00","e10_prix":1.875,"sp98_maj":"2024-02-20T15:30:13+01:00","sp98_prix":1.94,"pop":"R"},{"lat":50.018,"lon":4.053,"brand":"Simply Market","adresse":"61 Rue Jean Jaur\u00e8s, 59610 Fourmies","gazole_maj":"2024-02-22T09:35:00+01:00","gazole_prix":1.785,"sp95_maj":null,"sp95_prix":null,"e85_maj":null,"e85_prix":null,"gplc_maj":null,"gplc_prix":null,"e10_maj":"2024-02-22T09:35:00+01:00","e10_prix":1.797,"sp98_maj":"2024-02-22T09:35:00+01:00","sp98_prix":1.907,"pop":"R"},{"lat":43.8595,"lon":4.9522,"brand":null,"adresse":"2 ROUTE DE CAVAILLON, 13440 Cabannes","gazole_maj":"2024-02-16T09:10:56+01:00","gazole_prix":1.866,"sp95_maj":null,"sp95_prix":null,"e85_maj":"2024-02-16T09:10:56+01:00","e85_prix":0.998,"gplc_maj":null,"gplc_prix":null,"e10_maj":"2024-02-16T09:10:57+01:00","e10_prix":1.884,"sp98_maj":null,"sp98_prix":null,"pop":"R"},{"lat":47.421,"lon":2.884,"brand":null,"adresse":"Les Fouchards Route de Cosne, 18240 Boulleret","gazole_maj":"2024-02-29T00:50:00+01:00","gazole_prix":1.83,"sp95_maj":null,"sp95_prix":null,"e85_maj":"2024-01-16T00:50:00+01:00","e85_prix":0.98,"gplc_maj":null,"gplc_prix":null,"e10_maj":"2024-02-29T00:50:00+01:00","e10_prix":1.87,"sp98_maj":null,"sp98_prix":null,"pop":"R"},{"lat":47.3893,"lon":-1.0203,"brand":"Syst\u00e8me U","adresse":"ROUTE D'ANGERS, 44370 Loireauxence","gazole_maj":"2024-02-29T06:49:22+01:00","gazole_prix":1.748,"sp95_maj":"2024-02-28T06:03:48+01:00","sp95_prix":1.809,"e85_maj":"2024-02-29T06:49:22+01:00","e85_prix":0.869,"gplc_maj":null,"gplc_prix":null,"e10_maj":null,"e10_prix":null,"sp98_maj":"2024-02-29T06:49:23+01:00","sp98_prix":1.847,"pop":"R"},{"lat":48.885,"lon":2.505,"brand":null,"adresse":"32 AV DE ROSNY, 93250 Villemomble","gazole_maj":"2024-02-29T13:55:00+01:00","gazole_prix":1.889,"sp95_maj":null,"sp95_prix":null,"e85_maj":"2024-02-07T16:45:00+01:00","e85_prix":0.919,"gplc_maj":"2023-08-03T15:35:00+02:00","gplc_prix":1.049,"e10_maj":"2024-02-29T13:55:00+01:00","e10_prix":1.889,"sp98_maj":"2024-02-29T13:55:00+01:00","sp98_prix":2.009,"pop":"R"},{"lat":46.6166,"lon":2.8221,"brand":null,"adresse":"Avenue Jean Jaur\u00e8s, 3350 C\u00e9rilly","gazole_maj":"2024-02-19T13:05:41+01:00","gazole_prix":1.839,"sp95_maj":"2024-02-19T13:05:42+01:00","sp95_prix":1.909,"e85_maj":null,"e85_prix":null,"gplc_maj":null,"gplc_prix":null,"e10_maj":null,"e10_prix":null,"sp98_maj":null,"sp98_prix":null,"pop":"R"},{"lat":49.5941,"lon":4.5029,"brand":null,"adresse":"AUTOROUTE A34 - AIRE DES ARDENNES - WOINIC, 8270 Saulces-Monclin","gazole_maj":"2024-02-29T10:00:00+01:00","gazole_prix":1.969,"sp95_maj":null,"sp95_prix":null,"e85_maj":"2024-02-29T10:00:00+01:00","e85_prix":0.999,"gplc_maj":"2024-02-29T10:00:00+01:00","gplc_prix":1.064,"e10_maj":"2024-02-29T10:00:00+01:00","e10_prix":1.969,"sp98_maj":"2024-02-29T10:00:00+01:00","sp98_prix":1.99,"pop":"A"},{"lat":45.423,"lon":4.315,"brand":"Intermarch\u00e9","adresse":"3 Boulevard Pierre et Marie Curie, 42230 Roche-la-Moli\u00e8re","gazole_maj":"2024-02-26T01:00:00+01:00","gazole_prix":1.799,"sp95_maj":null,"sp95_prix":null,"e85_maj":"2024-01-08T10:05:05+01:00","e85_prix":0.848,"gplc_maj":null,"gplc_prix":null,"e10_maj":"2024-02-16T10:22:52+01:00","e10_prix":1.845,"sp98_maj":"2024-02-16T01:00:00+01:00","sp98_prix":1.939,"pop":"R"},{"lat":43.5728,"lon":7.1017,"brand":null,"adresse":"122-124 Boulevard Raymond Poincar\u00e9, 6160 Antibes","gazole_maj":"2024-02-29T07:30:00+01:00","gazole_prix":1.939,"sp95_maj":null,"sp95_prix":null,"e85_maj":null,"e85_prix":null,"gplc_maj":null,"gplc_prix":null,"e10_maj":"2024-02-29T07:30:00+01:00","e10_prix":1.949,"sp98_maj":"2024-02-29T07:30:00+01:00","sp98_prix":2.019,"pop":"R"},{"lat":48.0842,"lon":7.3458,"brand":null,"adresse":"42, ROUTE D'INGERSHEIM, 68000 Colmar","gazole_maj":"2024-02-29T01:01:00+01:00","gazole_prix":1.869,"sp95_maj":null,"sp95_prix":null,"e85_maj":null,"e85_prix":null,"gplc_maj":null,"gplc_prix":null,"e10_maj":"2024-02-29T01:01:00+01:00","e10_prix":1.869,"sp98_maj":"2024-02-29T01:01:00+01:00","sp98_prix":1.969,"pop":"R"},{"lat":48.9517,"lon":2.4167,"brand":null,"adresse":"226-232 AVENUE DU 8 MAI 1945, 93440 Dugny","gazole_maj":"2024-02-29T01:01:00+01:00","gazole_prix":1.966,"sp95_maj":null,"sp95_prix":null,"e85_maj":null,"e85_prix":null,"gplc_maj":null,"gplc_prix":null,"e10_maj":"2024-02-29T01:01:00+01:00","e10_prix":1.963,"sp98_maj":"2024-02-29T01:01:00+01:00","sp98_prix":1.99,"pop":"R"},{"lat":45.3959,"lon":4.2911,"brand":null,"adresse":"RUE DES ABATTOIRS, 42700 Firminy","gazole_maj":"2024-02-29T07:00:00+01:00","gazole_prix":1.889,"sp95_maj":null,"sp95_prix":null,"e85_maj":null,"e85_prix":null,"gplc_maj":null,"gplc_prix":null,"e10_maj":"2024-02-29T07:00:00+01:00","e10_prix":1.919,"sp98_maj":"2024-02-29T07:00:00+01:00","sp98_prix":1.999,"pop":"R"},{"lat":48.5437,"lon":7.7653,"brand":null,"adresse":"4 ROUTE D'ALTENHEIM, 67100 Strasbourg","gazole_maj":"2024-02-29T07:00:00+01:00","gazole_prix":1.81,"sp95_maj":null,"sp95_prix":null,"e85_maj":null,"e85_prix":null,"gplc_maj":null,"gplc_prix":null,"e10_maj":"2024-02-29T07:00:00+01:00","e10_prix":1.84,"sp98_maj":"2024-02-29T07:00:00+01:00","sp98_prix":1.94,"pop":"R"},{"lat":43.298,"lon":5.496,"brand":null,"adresse":"73 route des Camoins, 13011 Marseille","gazole_maj":"2024-02-28T12:45:49+01:00","gazole_prix":1.779,"sp95_maj":null,"sp95_prix":null,"e85_maj":null,"e85_prix":null,"gplc_maj":null,"gplc_prix":null,"e10_maj":"2024-02-28T12:45:49+01:00","e10_prix":1.819,"sp98_maj":"2024-02-28T12:45:49+01:00","sp98_prix":1.908,"pop":"R"},{"lat":43.73,"lon":1.063,"brand":"Carrefour Contact","adresse":"LASSOULAN, 31480 Cadours","gazole_maj":"2024-02-27T13:00:39+01:00","gazole_prix":1.799,"sp95_maj":null,"sp95_prix":null,"e85_maj":null,"e85_prix":null,"gplc_maj":null,"gplc_prix":null,"e10_maj":"2024-02-27T13:00:40+01:00","e10_prix":1.849,"sp98_maj":"2024-02-27T13:00:40+01:00","sp98_prix":1.939,"pop":"R"},{"lat":46.504,"lon":-1.799,"brand":null,"adresse":"68 Rue Joseph B\u00e9natier, 85100 Les Sables-d'Olonne","gazole_maj":"2024-02-17T09:11:48+01:00","gazole_prix":1.759,"sp95_maj":"2024-02-17T09:11:49+01:00","sp95_prix":1.799,"e85_maj":null,"e85_prix":null,"gplc_maj":null,"gplc_prix":null,"e10_maj":null,"e10_prix":null,"sp98_maj":"2024-02-17T09:11:49+01:00","sp98_prix":1.839,"pop":"R"},{"lat":43.554,"lon":1.404,"brand":"Total","adresse":"10 Boulevard de Thibaud, 31084 Toulouse","gazole_maj":"2024-02-28T06:44:10+01:00","gazole_prix":1.87,"sp95_maj":"2024-02-15T07:10:15+01:00","sp95_prix":1.979,"e85_maj":null,"e85_prix":null,"gplc_maj":null,"gplc_prix":null,"e10_maj":null,"e10_prix":null,"sp98_maj":null,"sp98_prix":null,"pop":"R"},{"lat":45.316,"lon":1.77,"brand":"Total","adresse":"42 route nationale 120, 19460 Naves","gazole_maj":"2024-02-29T09:07:48+01:00","gazole_prix":1.781,"sp95_maj":null,"sp95_prix":null,"e85_maj":"2024-02-20T08:59:26+01:00","e85_prix":0.849,"gplc_maj":null,"gplc_prix":null,"e10_maj":"2024-02-29T09:07:49+01:00","e10_prix":1.832,"sp98_maj":"2024-02-29T09:07:49+01:00","sp98_prix":1.905,"pop":"R"},{"lat":49.015,"lon":1.174,"brand":"Carrefour","adresse":"Route Nationnale 13, 27930 \u00c9vreux","gazole_maj":"2024-02-29T06:45:25+01:00","gazole_prix":1.778,"sp95_maj":null,"sp95_prix":null,"e85_maj":"2024-02-29T06:45:25+01:00","e85_prix":0.97,"gplc_maj":null,"gplc_prix":null,"e10_maj":"2024-02-29T06:45:26+01:00","e10_prix":1.826,"sp98_maj":"2024-02-29T06:45:26+01:00","sp98_prix":1.914,"pop":"R"},{"lat":47.978,"lon":3.411,"brand":"Total","adresse":"31 Avenue Jean H\u00e9mery, 89300 Joigny","gazole_maj":"2024-02-29T08:07:11+01:00","gazole_prix":1.877,"sp95_maj":"2024-02-29T08:07:11+01:00","sp95_prix":1.962,"e85_maj":null,"e85_prix":null,"gplc_maj":null,"gplc_prix":null,"e10_maj":null,"e10_prix":null,"sp98_maj":null,"sp98_prix":null,"pop":"R"},{"lat":49.386,"lon":3.333,"brand":"Esso Express","adresse":"1 Place de Laon, 2200 Soissons","gazole_maj":"2024-02-29T08:01:00+01:00","gazole_prix":1.774,"sp95_maj":null,"sp95_prix":null,"e85_maj":null,"e85_prix":null,"gplc_maj":null,"gplc_prix":null,"e10_maj":"2024-02-29T08:01:00+01:00","e10_prix":1.806,"sp98_maj":"2024-02-29T08:01:00+01:00","sp98_prix":1.886,"pop":"R"},{"lat":49.3512,"lon":0.0573,"brand":null,"adresse":"AVENUE DE LA REPUBLIQUE, 14800 Tourg\u00e9ville","gazole_maj":"2024-02-29T01:01:00+01:00","gazole_prix":1.873,"sp95_maj":null,"sp95_prix":null,"e85_maj":"2024-02-29T01:01:00+01:00","e85_prix":0.919,"gplc_maj":null,"gplc_prix":null,"e10_maj":"2024-02-29T01:01:00+01:00","e10_prix":1.892,"sp98_maj":"2024-02-29T01:01:00+01:00","sp98_prix":1.99,"pop":"R"},{"lat":42.463,"lon":9.205,"brand":"BP","adresse":"R.T 30, 20218 Morosaglia","gazole_maj":"2024-02-29T07:26:45+01:00","gazole_prix":1.919,"sp95_maj":"2024-02-29T07:26:45+01:00","sp95_prix":1.949,"e85_maj":null,"e85_prix":null,"gplc_maj":null,"gplc_prix":null,"e10_maj":null,"e10_prix":null,"sp98_maj":null,"sp98_prix":null,"pop":"R"},{"lat":49.7587,"lon":4.7265,"brand":"Supermarch\u00e9 Match","adresse":"42 Avenue des Martyrs-de-la-R\u00e9sistance, 8000 Charleville-M\u00e9zi\u00e8res","gazole_maj":"2024-02-29T08:22:27+01:00","gazole_prix":1.846,"sp95_maj":null,"sp95_prix":null,"e85_maj":null,"e85_prix":null,"gplc_maj":null,"gplc_prix":null,"e10_maj":"2024-02-29T08:22:28+01:00","e10_prix":1.852,"sp98_maj":"2024-02-29T08:22:28+01:00","sp98_prix":1.935,"pop":"R"},{"lat":43.6099,"lon":1.3528,"brand":"Esso Express","adresse":"2 Avenue Edouard Serres, 31770 Colomiers","gazole_maj":"2024-02-29T06:55:00+01:00","gazole_prix":1.802,"sp95_maj":null,"sp95_prix":null,"e85_maj":"2024-02-29T06:55:00+01:00","e85_prix":0.929,"gplc_maj":null,"gplc_prix":null,"e10_maj":"2024-02-29T06:55:00+01:00","e10_prix":1.822,"sp98_maj":"2024-02-29T06:55:00+01:00","sp98_prix":1.902,"pop":"R"},{"lat":45.702,"lon":4.796,"brand":null,"adresse":"66 RUE GEORGES CLEMENCEAU, 69230 Saint-Genis-Laval","gazole_maj":"2024-02-22T13:55:00+01:00","gazole_prix":1.849,"sp95_maj":null,"sp95_prix":null,"e85_maj":"2023-09-27T18:35:00+02:00","e85_prix":0.999,"gplc_maj":null,"gplc_prix":null,"e10_maj":"2024-02-16T16:25:00+01:00","e10_prix":1.879,"sp98_maj":"2024-02-16T16:25:00+01:00","sp98_prix":1.979,"pop":"R"},{"lat":44.799,"lon":-0.664,"brand":"Esso Express","adresse":"3 Avenue du G\u00e9n\u00e9ral Leclerc, 33600 Pessac","gazole_maj":"2024-02-27T08:01:00+01:00","gazole_prix":1.764,"sp95_maj":null,"sp95_prix":null,"e85_maj":null,"e85_prix":null,"gplc_maj":null,"gplc_prix":null,"e10_maj":"2024-02-27T08:01:00+01:00","e10_prix":1.792,"sp98_maj":"2024-02-27T08:01:00+01:00","sp98_prix":1.872,"pop":"R"},{"lat":46.98,"lon":5.809,"brand":"Colruyt","adresse":"Quartier Bel Air, 39330 Port-Lesney","gazole_maj":"2024-02-29T16:18:17+01:00","gazole_prix":1.789,"sp95_maj":"2024-02-29T16:18:17+01:00","sp95_prix":1.839,"e85_maj":null,"e85_prix":null,"gplc_maj":null,"gplc_prix":null,"e10_maj":"2024-02-29T16:18:18+01:00","e10_prix":1.809,"sp98_maj":null,"sp98_prix":null,"pop":"R"},{"lat":47.28,"lon":5.019,"brand":null,"adresse":"355 Avenue Jean Moulin, 21160 Marsannay-la-C\u00f4te","gazole_maj":"2024-02-29T09:52:09+01:00","gazole_prix":1.761,"sp95_maj":"2024-02-29T09:52:09+01:00","sp95_prix":1.852,"e85_maj":"2024-02-29T09:52:10+01:00","e85_prix":0.9,"gplc_maj":"2024-02-08T10:40:02+01:00","gplc_prix":0.899,"e10_maj":null,"e10_prix":null,"sp98_maj":"2024-02-29T09:52:10+01:00","sp98_prix":1.875,"pop":"R"},{"lat":48.5844,"lon":6.482,"brand":null,"adresse":"16 AVENUE DE GERBEVILLER, 54300 Lun\u00e9ville","gazole_maj":null,"gazole_prix":null,"sp95_maj":null,"sp95_prix":null,"e85_maj":null,"e85_prix":null,"gplc_maj":null,"gplc_prix":null,"e10_maj":null,"e10_prix":null,"sp98_maj":null,"sp98_prix":null,"pop":"R"},{"lat":49.1169,"lon":6.2786,"brand":"Avia","adresse":"16 Route Sarrebruck, 57645 Ogy-Montoy-Flanville","gazole_maj":"2024-02-27T18:48:47+01:00","gazole_prix":1.859,"sp95_maj":"2024-02-23T12:57:12+01:00","sp95_prix":1.949,"e85_maj":null,"e85_prix":null,"gplc_maj":null,"gplc_prix":null,"e10_maj":null,"e10_prix":null,"sp98_maj":null,"sp98_prix":null,"pop":"R"},{"lat":48.646,"lon":6.9203,"brand":null,"adresse":"1 RN 4, 57830 Richeval","gazole_maj":null,"gazole_prix":null,"sp95_maj":null,"sp95_prix":null,"e85_maj":null,"e85_prix":null,"gplc_maj":null,"gplc_prix":null,"e10_maj":null,"e10_prix":null,"sp98_maj":null,"sp98_prix":null,"pop":"R"},{"lat":49.419,"lon":2.82,"brand":"Esso Express","adresse":"20 Rue de Clermont, 60200 Compi\u00e8gne","gazole_maj":"2024-02-29T08:01:00+01:00","gazole_prix":1.776,"sp95_maj":null,"sp95_prix":null,"e85_maj":null,"e85_prix":null,"gplc_maj":null,"gplc_prix":null,"e10_maj":"2024-02-29T08:01:00+01:00","e10_prix":1.803,"sp98_maj":"2024-02-29T08:01:00+01:00","sp98_prix":1.883,"pop":"R"},{"lat":49.178,"lon":2.456,"brand":"Esso Express","adresse":"41 Avenue du G\u00e9n\u00e9ral Leclerc, 60500 Chantilly","gazole_maj":"2024-02-27T08:01:00+01:00","gazole_prix":1.802,"sp95_maj":null,"sp95_prix":null,"e85_maj":null,"e85_prix":null,"gplc_maj":null,"gplc_prix":null,"e10_maj":"2024-02-27T08:01:00+01:00","e10_prix":1.811,"sp98_maj":"2024-02-27T08:01:00+01:00","sp98_prix":1.891,"pop":"R"},{"lat":45.788,"lon":3.057,"brand":null,"adresse":"AVENUE DU PUY DE DOME, 63000 Clermont-Ferrand","gazole_maj":"2024-02-29T01:01:00+01:00","gazole_prix":1.781,"sp95_maj":null,"sp95_prix":null,"e85_maj":"2024-02-29T01:01:00+01:00","e85_prix":0.899,"gplc_maj":null,"gplc_prix":null,"e10_maj":"2024-02-29T01:01:00+01:00","e10_prix":1.817,"sp98_maj":"2024-02-29T01:01:00+01:00","sp98_prix":1.917,"pop":"R"},{"lat":48.5812,"lon":7.7693,"brand":null,"adresse":"50 BOULEVARD DE LA VICTOIRE, 67000 Strasbourg","gazole_maj":"2023-10-18T02:01:00+02:00","gazole_prix":1.961,"sp95_maj":null,"sp95_prix":null,"e85_maj":"2023-10-18T02:01:00+02:00","e85_prix":0.994,"gplc_maj":null,"gplc_prix":null,"e10_maj":null,"e10_prix":null,"sp98_maj":null,"sp98_prix":null,"pop":"R"},{"lat":49.7412,"lon":4.7259,"brand":null,"adresse":"RTE DE LAFRANCHEVILLE, 8000 Charleville-M\u00e9zi\u00e8res","gazole_maj":"2024-02-29T01:01:00+01:00","gazole_prix":1.952,"sp95_maj":null,"sp95_prix":null,"e85_maj":"2024-02-29T01:01:00+01:00","e85_prix":0.919,"gplc_maj":"2024-02-29T01:01:00+01:00","gplc_prix":0.994,"e10_maj":"2024-02-29T01:01:00+01:00","e10_prix":1.946,"sp98_maj":"2024-02-29T01:01:00+01:00","sp98_prix":1.99,"pop":"R"},{"lat":45.776,"lon":4.821,"brand":"Esso Express","adresse":"22 Rue Philippe de Lassalle, 69004 Lyon","gazole_maj":"2024-02-27T08:01:00+01:00","gazole_prix":1.768,"sp95_maj":null,"sp95_prix":null,"e85_maj":"2024-02-27T08:01:00+01:00","e85_prix":0.921,"gplc_maj":null,"gplc_prix":null,"e10_maj":"2024-02-27T08:01:00+01:00","e10_prix":1.818,"sp98_maj":"2024-02-27T08:01:00+01:00","sp98_prix":1.898,"pop":"R"},{"lat":45.7498,"lon":4.9126,"brand":null,"adresse":"283 RTE DE GENAS, 69100 Bron","gazole_maj":"2024-02-29T01:01:00+01:00","gazole_prix":1.759,"sp95_maj":null,"sp95_prix":null,"e85_maj":null,"e85_prix":null,"gplc_maj":null,"gplc_prix":null,"e10_maj":"2024-02-29T01:01:00+01:00","e10_prix":1.812,"sp98_maj":"2024-02-29T01:01:00+01:00","sp98_prix":1.902,"pop":"R"},{"lat":48.125,"lon":0.6222,"brand":null,"adresse":"AUT A11 AIRE DE VILLAINES LA GONAIS, 72400 Villaines-la-Gonais","gazole_maj":"2024-02-29T07:00:00+01:00","gazole_prix":2.049,"sp95_maj":null,"sp95_prix":null,"e85_maj":null,"e85_prix":null,"gplc_maj":"2024-02-29T07:00:00+01:00","gplc_prix":1.139,"e10_maj":"2024-02-29T07:00:00+01:00","e10_prix":2.099,"sp98_maj":"2024-02-29T07:00:00+01:00","sp98_prix":2.219,"pop":"A"},{"lat":44.1377,"lon":2.166,"brand":null,"adresse":"9 Av de Carmaux, 81190 Mirandol-Bourgnounac","gazole_maj":null,"gazole_prix":null,"sp95_maj":null,"sp95_prix":null,"e85_maj":null,"e85_prix":null,"gplc_maj":null,"gplc_prix":null,"e10_maj":null,"e10_prix":null,"sp98_maj":null,"sp98_prix":null,"pop":"R"},{"lat":43.107,"lon":6.027,"brand":null,"adresse":"157 Avenue Ganzin, 83220 Le Pradet","gazole_maj":"2024-02-27T11:52:00+01:00","gazole_prix":1.787,"sp95_maj":null,"sp95_prix":null,"e85_maj":null,"e85_prix":null,"gplc_maj":null,"gplc_prix":null,"e10_maj":"2024-02-27T11:52:00+01:00","e10_prix":1.821,"sp98_maj":"2024-02-27T11:52:00+01:00","sp98_prix":1.901,"pop":"R"},{"lat":43.3929,"lon":6.3452,"brand":null,"adresse":"LIEU DIT LES TAURELLES RN 7, 83340 Le Cannet-des-Maures","gazole_maj":"2024-02-29T01:01:00+01:00","gazole_prix":1.769,"sp95_maj":null,"sp95_prix":null,"e85_maj":"2024-02-29T01:01:00+01:00","e85_prix":0.899,"gplc_maj":null,"gplc_prix":null,"e10_maj":"2024-02-29T01:01:00+01:00","e10_prix":1.831,"sp98_maj":"2024-02-29T01:01:00+01:00","sp98_prix":1.919,"pop":"R"},{"lat":43.951,"lon":4.825,"brand":"Esso Express","adresse":"18 Route de Lyon, 84000 Avignon","gazole_maj":"2024-02-27T08:01:00+01:00","gazole_prix":1.778,"sp95_maj":null,"sp95_prix":null,"e85_maj":"2024-02-27T08:01:00+01:00","e85_prix":0.919,"gplc_maj":null,"gplc_prix":null,"e10_maj":"2024-02-27T08:01:00+01:00","e10_prix":1.793,"sp98_maj":"2024-02-27T08:01:00+01:00","sp98_prix":1.873,"pop":"R"},{"lat":47.23,"lon":-0.438,"brand":null,"adresse":"2 ROUTE DE VIHIERS, 49540 Terranjou","gazole_maj":"2024-02-19T16:29:48+01:00","gazole_prix":1.87,"sp95_maj":"2024-02-19T16:29:48+01:00","sp95_prix":1.91,"e85_maj":null,"e85_prix":null,"gplc_maj":null,"gplc_prix":null,"e10_maj":null,"e10_prix":null,"sp98_maj":"2024-02-19T16:29:48+01:00","sp98_prix":1.95,"pop":"R"},{"lat":45.3902,"lon":3.9469,"brand":"Intermarch\u00e9 Contact","adresse":"Avenue de la Gare, 42550 Usson-en-Forez","gazole_maj":"2024-02-15T06:55:08+01:00","gazole_prix":1.849,"sp95_maj":"2024-02-15T06:55:08+01:00","sp95_prix":1.929,"e85_maj":null,"e85_prix":null,"gplc_maj":null,"gplc_prix":null,"e10_maj":null,"e10_prix":null,"sp98_maj":"2024-02-15T06:55:09+01:00","sp98_prix":2.029,"pop":"R"},{"lat":45.18,"lon":5.712,"brand":null,"adresse":"23-27 BRD JOSEPH VALLIER, 38100 Grenoble","gazole_maj":"2024-02-28T14:20:00+01:00","gazole_prix":1.839,"sp95_maj":null,"sp95_prix":null,"e85_maj":null,"e85_prix":null,"gplc_maj":null,"gplc_prix":null,"e10_maj":"2024-02-09T15:15:00+01:00","e10_prix":1.869,"sp98_maj":"2024-02-09T15:15:00+01:00","sp98_prix":1.989,"pop":"R"},{"lat":44.5087,"lon":3.2511,"brand":"Ind\u00e9pendant sans enseigne","adresse":"LA GARE, 48100 Bourgs sur Colagne","gazole_maj":"2024-02-13T19:26:33+01:00","gazole_prix":1.855,"sp95_maj":null,"sp95_prix":null,"e85_maj":null,"e85_prix":null,"gplc_maj":null,"gplc_prix":null,"e10_maj":null,"e10_prix":null,"sp98_maj":null,"sp98_prix":null,"pop":"R"},{"lat":44.478,"lon":1.294,"brand":"Supermarch\u00e9s Spar","adresse":"LIEU DIT LA BERGERIE SUD - ROUTE DE CAHORS, 46140 Luzech","gazole_maj":"2024-02-12T22:25:51+01:00","gazole_prix":1.782,"sp95_maj":"2024-02-12T22:25:51+01:00","sp95_prix":1.922,"e85_maj":null,"e85_prix":null,"gplc_maj":null,"gplc_prix":null,"e10_maj":"2024-02-12T22:25:52+01:00","e10_prix":1.871,"sp98_maj":null,"sp98_prix":null,"pop":"R"},{"lat":45.235,"lon":4.672,"brand":"Ind\u00e9pendant sans enseigne","adresse":"Route du 4\u00e8me Spahis, 7100 Annonay","gazole_maj":"2024-02-15T11:47:47+01:00","gazole_prix":1.899,"sp95_maj":"2024-02-15T11:47:47+01:00","sp95_prix":1.989,"e85_maj":null,"e85_prix":null,"gplc_maj":null,"gplc_prix":null,"e10_maj":null,"e10_prix":null,"sp98_maj":"2024-02-15T11:47:47+01:00","sp98_prix":1.99,"pop":"R"},{"lat":43.6158,"lon":1.4211,"brand":null,"adresse":"55 BOULEVARD DE SUISSE, 31200 Toulouse","gazole_maj":"2024-02-29T01:01:00+01:00","gazole_prix":1.779,"sp95_maj":null,"sp95_prix":null,"e85_maj":null,"e85_prix":null,"gplc_maj":null,"gplc_prix":null,"e10_maj":"2024-02-29T01:01:00+01:00","e10_prix":1.817,"sp98_maj":"2024-02-29T01:01:00+01:00","sp98_prix":1.912,"pop":"R"},{"lat":50.37,"lon":3.481,"brand":null,"adresse":"AUTOROUTE A23 6 - AIRE DE PETITE FOR\u00caT, 59494 Petite-For\u00eat","gazole_maj":"2024-02-29T10:00:00+01:00","gazole_prix":1.797,"sp95_maj":null,"sp95_prix":null,"e85_maj":"2024-02-29T10:00:00+01:00","e85_prix":0.899,"gplc_maj":"2024-02-29T10:00:00+01:00","gplc_prix":0.969,"e10_maj":"2024-02-29T10:00:00+01:00","e10_prix":1.806,"sp98_maj":"2024-02-29T10:00:00+01:00","sp98_prix":1.907,"pop":"A"},{"lat":48.664,"lon":5.912,"brand":"BP","adresse":"AUTOROUTE A 31, 54200 Dommartin-l\u00e8s-Toul","gazole_maj":"2024-02-28T13:30:00+01:00","gazole_prix":2.084,"sp95_maj":null,"sp95_prix":null,"e85_maj":null,"e85_prix":null,"gplc_maj":"2023-07-27T13:55:00+02:00","gplc_prix":1.144,"e10_maj":"2024-02-27T15:10:00+01:00","e10_prix":2.104,"sp98_maj":"2024-02-27T15:10:00+01:00","sp98_prix":2.224,"pop":"A"},{"lat":50.0155,"lon":4.0569,"brand":null,"adresse":"11 Rue Fernand P\u00e9cheux, 59610 Fourmies","gazole_maj":null,"gazole_prix":null,"sp95_maj":null,"sp95_prix":null,"e85_maj":null,"e85_prix":null,"gplc_maj":null,"gplc_prix":null,"e10_maj":null,"e10_prix":null,"sp98_maj":null,"sp98_prix":null,"pop":"R"},{"lat":47.245,"lon":5.204,"brand":"Total","adresse":"route departementale 905, 21110 Genlis","gazole_maj":"2024-02-29T09:08:09+01:00","gazole_prix":1.894,"sp95_maj":"2024-02-29T09:08:09+01:00","sp95_prix":1.961,"e85_maj":null,"e85_prix":null,"gplc_maj":null,"gplc_prix":null,"e10_maj":null,"e10_prix":null,"sp98_maj":"2024-02-26T11:02:54+01:00","sp98_prix":1.99,"pop":"R"},{"lat":50.185,"lon":3.225,"brand":null,"adresse":"58 RUE DE DOUAI, 59400 Cambrai","gazole_maj":"2024-02-29T01:01:00+01:00","gazole_prix":1.891,"sp95_maj":null,"sp95_prix":null,"e85_maj":"2024-02-29T01:01:00+01:00","e85_prix":0.919,"gplc_maj":null,"gplc_prix":null,"e10_maj":"2024-02-29T01:01:00+01:00","e10_prix":1.899,"sp98_maj":"2024-02-29T01:01:00+01:00","sp98_prix":1.99,"pop":"R"},{"lat":47.4317,"lon":6.068,"brand":null,"adresse":"ZA DE LA CHARRIERE, 70190 Rioz","gazole_maj":"2024-02-14T09:40:46+01:00","gazole_prix":1.819,"sp95_maj":null,"sp95_prix":null,"e85_maj":null,"e85_prix":null,"gplc_maj":null,"gplc_prix":null,"e10_maj":"2024-02-14T09:40:46+01:00","e10_prix":1.809,"sp98_maj":"2024-02-14T09:40:46+01:00","sp98_prix":1.84,"pop":"R"},{"lat":44.7065,"lon":2.1951,"brand":"Total","adresse":"Avenue de Bagnac, 15600 Maurs","gazole_maj":"2024-02-21T08:38:05+01:00","gazole_prix":1.909,"sp95_maj":null,"sp95_prix":null,"e85_maj":null,"e85_prix":null,"gplc_maj":"2024-02-21T08:38:05+01:00","gplc_prix":1.047,"e10_maj":"2024-02-21T08:38:05+01:00","e10_prix":1.929,"sp98_maj":"2024-02-21T08:38:06+01:00","sp98_prix":1.99,"pop":"R"},{"lat":44.1429,"lon":5.9593,"brand":"Intermarch\u00e9","adresse":"route de Sisteron, 4200 Peipin","gazole_maj":"2024-02-28T08:56:59+01:00","gazole_prix":1.799,"sp95_maj":null,"sp95_prix":null,"e85_maj":"2024-02-16T12:18:08+01:00","e85_prix":0.849,"gplc_maj":null,"gplc_prix":null,"e10_maj":"2024-02-28T08:57:00+01:00","e10_prix":1.839,"sp98_maj":"2024-02-28T08:57:00+01:00","sp98_prix":1.909,"pop":"R"},