[{"lat":48.802,"lon":2.487,"brand":"Carrefour Market","adresse":"57, Rue Delenue, 94100 Saint-Maur-des-Foss\u00e9s","gazole_maj":"2023-10-16 06:58:33","gazole_prix":1.916,"sp95_maj":null,"sp95_prix":null,"e85_maj":null,"e85_prix":null,"gplc_maj":null,"gplc_prix":null,"e10_maj":"2023-10-16 06:58:34","e10_prix":1.882,"sp98_maj":"2023-10-16 06:58:34","sp98_prix":1.962,"pop":"R"},{"lat":43.0851,"lon":5.8812,"brand":null,"adresse":"Avenue Salvador Allende, 83500 La Seyne-sur-Mer","gazole_maj":"2023-10-14 19:30:00","gazole_prix":1.814,"sp95_maj":null,"sp95_prix":null,"e85_maj":"2023-10-14 06:47:44","e85_prix":0.998,"gplc_maj":null,"gplc_prix":null,"e10_maj":"2023-10-14 19:30:00","e10_prix":1.774,"sp98_maj":"2023-10-14 19:30:00","sp98_prix":1.853,"pop":"R"},{"lat":50.258,"lon":3.913,"brand":null,"adresse":"VOIE RAPIDE HAUTMONT-MAUBEUGE, 59330 Hautmont","gazole_maj":"2023-10-14 19:31:00","gazole_prix":1.898,"sp95_maj":null,"sp95_prix":null,"e85_maj":"2023-10-14 19:31:00","e85_prix":0.998,"gplc_maj":null,"gplc_prix":null,"e10_maj":"2023-10-14 19:31:00","e10_prix":1.887,"sp98_maj":null,"sp98_prix":null,"pop":"R"},{"lat":45.352,"lon":5.254,"brand":"Total","adresse":"2935 chemin de la voie ferr\u00e9e, 38260 La C\u00f4te-Saint-Andr\u00e9","gazole_maj":"2023-10-14 08:03:09","gazole_prix":1.964,"sp95_maj":null,"sp95_prix":null,"e85_maj":null,"e85_prix":null,"gplc_maj":null,"gplc_prix":null,"e10_maj":"2023-10-13 08:46:41","e10_prix":1.902,"sp98_maj":"2023-10-07 11:16:07","sp98_prix":1.999,"pop":"R"},{"lat":44.888,"lon":-0.579,"brand":"Esso","adresse":"A630 ROC.PRESQU'ILE LAC COTE2, 33520 Bruges","gazole_maj":"2023-10-16 11:35:00","gazole_prix":1.904,"sp95_maj":null,"sp95_prix":null,"e85_maj":null,"e85_prix":null,"gplc_maj":"2023-10-16 11:35:00","gplc_prix":0.963,"e10_maj":"2023-10-16 11:35:00","e10_prix":1.849,"sp98_maj":"2023-10-16 11:35:00","sp98_prix":1.939,"pop":"A"},{"lat":43.198,"lon":5.805,"brand":null,"adresse":"8 R\u00e9sidence Le Peyron, 83330 Le Beausset","gazole_maj":"2023-10-15 08:49:29","gazole_prix":1.879,"sp95_maj":null,"sp95_prix":null,"e85_maj":null,"e85_prix":null,"gplc_maj":null,"gplc_prix":null,"e10_maj":"2023-10-15 08:49:29","e10_prix":1.829,"sp98_maj":"2023-10-15 08:49:29","sp98_prix":1.909,"pop":"R"},{"lat":50.364,"lon":3.097,"brand":"Esso Express","adresse":"121 AVENUE ROGER SALENGRO, 59450 Douai","gazole_maj":"2023-10-14 04:03:00","gazole_prix":1.988,"sp95_maj":null,"sp95_prix":null,"e85_maj":null,"e85_prix":null,"gplc_maj":null,"gplc_prix":null,"e10_maj":"2023-10-14 04:03:00","e10_prix":1.923,"sp98_maj":"2023-10-14 04:03:00","sp98_prix":2.003,"pop":"R"},{"lat":50.5908,"lon":2.1688,"brand":"Elan","adresse":"26 RUE PRINCIPALE, 62560 Dennebr\u0153ucq","gazole_maj":"2023-09-25 20:28:59","gazole_prix":1.99,"sp95_maj":"2023-09-25 20:29:37","sp95_prix":1.99,"e85_maj":null,"e85_prix":null,"gplc_maj":null,"gplc_prix":null,"e10_maj":null,"e10_prix":null,"sp98_maj":null,"sp98_prix":null,"pop":"R"},{"lat":45.7261,"lon":2.8953,"brand":"Total","adresse":"LES QUATRE ROUTES, 63210 N\u00e9bouzat","gazole_maj":"2023-10-14 10:50:11","gazole_prix":1.974,"sp95_maj":"2023-10-13 08:14:03","sp95_prix":1.976,"e85_maj":null,"e85_prix":null,"gplc_maj":null,"gplc_prix":null,"e10_maj":null,"e10_prix":null,"sp98_maj":null,"sp98_prix":null,"pop":"R"},{"lat":47.841,"lon":5.549,"brand":"Avia","adresse":"15 Rue Camille Perfetti, 52600 Haute-Amance","gazole_maj":"2023-09-18 07:39:35","gazole_prix":1.999,"sp95_maj":"2023-09-18 07:39:36","sp95_prix":2.049,"e85_maj":null,"e85_prix":null,"gplc_maj":null,"gplc_prix":null,"e10_maj":null,"e10_prix":null,"sp98_maj":"2023-09-18 07:39:36","sp98_prix":2.089,"pop":"R"},{"lat":45.781,"lon":4.801,"brand":"Esso Express","adresse":"69 AVENUE DU 25EME RTS, 69009 Lyon","gazole_maj":"2023-10-16 05:31:00","gazole_prix":1.854,"sp95_maj":null,"sp95_prix":null,"e85_maj":"2023-10-16 05:31:00","e85_prix":1.099,"gplc_maj":null,"gplc_prix":null,"e10_maj":"2023-10-16 05:31:00","e10_prix":1.804,"sp98_maj":"2023-10-16 05:31:00","sp98_prix":1.884,"pop":"R"},{"lat":48.7242,"lon":7.6911,"brand":null,"adresse":"Aire de Brumath Ouest - Autoroute A4, 67170 Brumath","gazole_maj":"2023-10-10 12:00:00","gazole_prix":1.971,"sp95_maj":null,"sp95_prix":null,"e85_maj":"2023-08-04 12:10:00","e85_prix":1.229,"gplc_maj":"2023-10-03 12:25:00","gplc_prix":1.097,"e10_maj":"2023-10-10 12:05:00","e10_prix":1.942,"sp98_maj":"2023-10-10 12:05:00","sp98_prix":2.027,"pop":"A"},{"lat":49.894,"lon":2.285,"brand":"Esso Express","adresse":"28 Place du Mar\u00e9chal Foch, 80000 Amiens","gazole_maj":"2023-10-14 05:31:00","gazole_prix":1.869,"sp95_maj":null,"sp95_prix":null,"e85_maj":null,"e85_prix":null,"gplc_maj":null,"gplc_prix":null,"e10_maj":"2023-10-14 05:31:00","e10_prix":1.859,"sp98_maj":"2023-10-14 05:31:00","sp98_prix":1.939,"pop":"R"},{"lat":49.5292,"lon":0.7206,"brand":"Carrefour Market","adresse":"rue sainte gertrude, 76490 Rives-en-Seine","gazole_maj":"2023-10-05 09:40:53","gazole_prix":1.969,"sp95_maj":"2023-10-05 09:40:54","sp95_prix":1.939,"e85_maj":null,"e85_prix":null,"gplc_maj":null,"gplc_prix":null,"e10_maj":"2023-10-05 09:40:54","e10_prix":1.909,"sp98_maj":null,"sp98_prix":null,"pop":"R"},{"lat":48.4596,"lon":7.4951,"brand":null,"adresse":"8 RUE DU MARECHAL JUIN, 67210 Obernai","gazole_maj":"2023-10-16 00:01:00","gazole_prix":1.98,"sp95_maj":null,"sp95_prix":null,"e85_maj":"2023-10-16 00:01:00","e85_prix":0.994,"gplc_maj":null,"gplc_prix":null,"e10_maj":"2023-10-16 00:01:00","e10_prix":1.899,"sp98_maj":"2023-10-16 00:01:00","sp98_prix":1.99,"pop":"R"},{"lat":47.547,"lon":-0.1199,"brand":"Syst\u00e8me U","adresse":"Avenue d'Angers, 49150 Baug\u00e9-en-Anjou","gazole_maj":"2023-10-16 11:21:08","gazole_prix":1.819,"sp95_maj":"2023-10-16 07:54:51","sp95_prix":1.889,"e85_maj":"2023-10-16 07:54:51","e85_prix":1.009,"gplc_maj":null,"gplc_prix":null,"e10_maj":"2023-10-13 09:12:39","e10_prix":1.799,"sp98_maj":"2023-10-13 07:56:17","sp98_prix":1.899,"pop":"R"},{"lat":49.914,"lon":2.235,"brand":"Total","adresse":"421 Avenue Louis Pasteur, 80470 Dreuil-l\u00e8s-Amiens","gazole_maj":"2023-10-16 08:05:16","gazole_prix":1.984,"sp95_maj":null,"sp95_prix":null,"e85_maj":null,"e85_prix":null,"gplc_maj":null,"gplc_prix":null,"e10_maj":"2023-10-16 08:05:17","e10_prix":1.914,"sp98_maj":"2023-08-21 09:53:26","sp98_prix":1.99,"pop":"R"},{"lat":44.287,"lon":4.11,"brand":"Ind\u00e9pendant sans enseigne","adresse":"Sauvegarde, 30160 Bess\u00e8ges","gazole_maj":"2023-10-10 08:03:05","gazole_prix":1.879,"sp95_maj":"2023-10-10 08:03:06","sp95_prix":1.899,"e85_maj":null,"e85_prix":null,"gplc_maj":null,"gplc_prix":null,"e10_maj":null,"e10_prix":null,"sp98_maj":"2023-10-10 08:03:06","sp98_prix":1.915,"pop":"R"},{"lat":42.883,"lon":1.215,"brand":"Total","adresse":"HAMEAUX DE ROQUEMAUREL, 9140 Oust","gazole_maj":null,"gazole_prix":null,"sp95_maj":null,"sp95_prix":null,"e85_maj":"2023-10-02 10:53:53","e85_prix":0.994,"gplc_maj":null,"gplc_prix":null,"e10_maj":"2023-10-12 07:57:40","e10_prix":1.893,"sp98_maj":"2023-10-02 10:53:53","sp98_prix":1.99,"pop":"R"},{"lat":42.172,"lon":9.17,"brand":null,"adresse":"RT 20, 20219 Vivario","gazole_maj":"2023-10-10 14:37:41","gazole_prix":1.969,"sp95_maj":"2023-10-10 14:37:41","sp95_prix":1.969,"e85_maj":null,"e85_prix":null,"gplc_maj":null,"gplc_prix":null,"e10_maj":null,"e10_prix":null,"sp98_maj":null,"sp98_prix":null,"pop":"R"},{"lat":43.4645,"lon":5.003,"brand":null,"adresse":"Cd 5 Quartier des Emplaniers, 13920 Saint-Mitre-les-Remparts","gazole_maj":"2023-10-07 12:45:05","gazole_prix":1.849,"sp95_maj":"2023-09-21 12:51:08","sp95_prix":1.979,"e85_maj":null,"e85_prix":null,"gplc_maj":null,"gplc_prix":null,"e10_maj":"2023-09-21 12:51:08","e10_prix":1.979,"sp98_maj":null,"sp98_prix":null,"pop":"R"},{"lat":50.309,"lon":4.089,"brand":null,"adresse":"818 Rue du Mar\u00e9chal Leclerc, 59460 Jeumont","gazole_maj":"2023-10-14 20:12:00","gazole_prix":1.822,"sp95_maj":null,"sp95_prix":null,"e85_maj":"2023-09-19 16:44:37","e85_prix":0.998,"gplc_maj":null,"gplc_prix":null,"e10_maj":"2023-10-14 20:12:00","e10_prix":1.817,"sp98_maj":"2023-10-14 20:12:00","sp98_prix":1.889,"pop":"R"},{"lat":50.1565,"lon":2.3442,"brand":null,"adresse":"RUE MENCHON, 80600 Doullens","gazole_maj":"2023-10-16 08:20:28","gazole_prix":1.803,"sp95_maj":null,"sp95_prix":null,"e85_maj":null,"e85_prix":null,"gplc_maj":null,"gplc_prix":null,"e10_maj":"2023-10-16 08:20:29","e10_prix":1.732,"sp98_maj":"2023-10-16 08:20:29","sp98_prix":1.832,"pop":"R"},{"lat":48.801,"lon":2.34,"brand":"Esso Express","adresse":"20 Avenue Paul Vaillant-Couturier, 94110 Arcueil","gazole_maj":"2023-10-14 04:03:00","gazole_prix":1.929,"sp95_maj":null,"sp95_prix":null,"e85_maj":"2023-10-14 04:03:00","e85_prix":1.079,"gplc_maj":null,"gplc_prix":null,"e10_maj":"2023-10-14 04:03:00","e10_prix":1.889,"sp98_maj":"2023-10-14 04:03:00","sp98_prix":1.969,"pop":"R"},{"lat":48.851,"lon":2.495,"brand":"Esso Express","adresse":"264 Avenue du G\u00e9n\u00e9ral de Gaulle, 94170 Le Perreux-sur-Marne","gazole_maj":"2023-10-16 05:31:00","gazole_prix":1.917,"sp95_maj":null,"sp95_prix":null,"e85_maj":"2023-10-16 05:31:00","e85_prix":1.019,"gplc_maj":null,"gplc_prix":null,"e10_maj":"2023-10-16 05:31:00","e10_prix":1.873,"sp98_maj":"2023-10-16 05:31:00","sp98_prix":1.953,"pop":"R"},{"lat":45.841,"lon":2.759,"brand":"Total","adresse":"6 AVENUE DES VOLCANS - D941, 63230 La Goutelle","gazole_maj":"2023-10-13 20:37:20","gazole_prix":1.974,"sp95_maj":null,"sp95_prix":null,"e85_maj":null,"e85_prix":null,"gplc_maj":null,"gplc_prix":null,"e10_maj":"2023-10-13 20:37:20","e10_prix":1.902,"sp98_maj":"2023-07-04 05:22:53","sp98_prix":1.99,"pop":"R"},{"lat":49.006,"lon":2.172,"brand":"Esso Express","adresse":"61 Boulevard DU HAVRE, 95220 Herblay-sur-Seine","gazole_maj":"2023-10-16 05:31:00","gazole_prix":1.914,"sp95_maj":null,"sp95_prix":null,"e85_maj":null,"e85_prix":null,"gplc_maj":null,"gplc_prix":null,"e10_maj":"2023-10-16 05:31:00","e10_prix":1.885,"sp98_maj":"2023-10-16 05:31:00","sp98_prix":1.965,"pop":"R"},{"lat":48.993,"lon":2.359,"brand":null,"adresse":"47 AVENUE DU GENERAL DE GAULLE, 95350 Saint-Brice-sous-For\u00eat","gazole_maj":"2023-10-16 00:01:00","gazole_prix":1.99,"sp95_maj":null,"sp95_prix":null,"e85_maj":"2023-10-16 00:01:00","e85_prix":0.994,"gplc_maj":null,"gplc_prix":null,"e10_maj":"2023-10-16 00:01:00","e10_prix":1.967,"sp98_maj":"2023-10-16 00:01:00","sp98_prix":1.99,"pop":"R"},{"lat":48.994,"lon":2.28,"brand":"Esso Express","adresse":"5 Avenue Voltaire, 95600 Eaubonne","gazole_maj":"2023-10-14 11:52:00","gazole_prix":1.909,"sp95_maj":null,"sp95_prix":null,"e85_maj":"2023-10-14 11:52:00","e85_prix":1.079,"gplc_maj":null,"gplc_prix":null,"e10_maj":"2023-10-14 11:52:00","e10_prix":1.859,"sp98_maj":"2023-10-14 11:52:00","sp98_prix":1.939,"pop":"R"},{"lat":43.8125,"lon":1.3619,"brand":null,"adresse":"Autoroute A62 - Aire de Frontonnais Nord, 31620 Castelnau-d'Estr\u00e9tefonds","gazole_maj":"2023-10-10 07:45:49","gazole_prix":1.99,"sp95_maj":null,"sp95_prix":null,"e85_maj":null,"e85_prix":null,"gplc_maj":"2023-10-10 07:45:49","gplc_prix":1.054,"e10_maj":"2023-10-10 10:04:39","e10_prix":1.973,"sp98_maj":"2023-10-10 07:45:49","sp98_prix":1.99,"pop":"A"},{"lat":46.488,"lon":-0.398,"brand":"Syst\u00e8me U","adresse":"50, RUE DE LA GRANGE LUCAS, 79220 Champdeniers","gazole_maj":"2023-10-16 09:32:34","gazole_prix":1.8,"sp95_maj":null,"sp95_prix":null,"e85_maj":"2023-10-16 09:32:34","e85_prix":0.95,"gplc_maj":null,"gplc_prix":null,"e10_maj":"2023-10-15 08:38:46","e10_prix":1.74,"sp98_maj":"2023-10-15 08:38:47","sp98_prix":1.839,"pop":"R"},{"lat":45.742,"lon":4.798,"brand":"Casino","adresse":"28 Avenue Maurice JARROSSON, 69110 Sainte-Foy-l\u00e8s-Lyon","gazole_maj":"2023-10-14 08:18:40","gazole_prix":1.829,"sp95_maj":null,"sp95_prix":null,"e85_maj":null,"e85_prix":null,"gplc_maj":null,"gplc_prix":null,"e10_maj":"2023-10-14 08:18:40","e10_prix":1.799,"sp98_maj":"2023-10-14 08:18:40","sp98_prix":1.889,"pop":"R"},{"lat":48.402,"lon":2.936,"brand":"Total","adresse":"RN 105, 77130 Forges","gazole_maj":"2023-10-12 18:25:54","gazole_prix":1.99,"sp95_maj":null,"sp95_prix":null,"e85_maj":null,"e85_prix":null,"gplc_maj":null,"gplc_prix":null,"e10_maj":"2023-10-12 18:25:54","e10_prix":1.945,"sp98_maj":"2023-10-12 18:25:54","sp98_prix":1.99,"pop":"R"},{"lat":41.965,"lon":8.782,"brand":"BP","adresse":"Route de Sagone, 20167 Alata","gazole_maj":"2023-10-16 10:36:08","gazole_prix":1.927,"sp95_maj":"2023-10-16 08:20:22","sp95_prix":1.868,"e85_maj":null,"e85_prix":null,"gplc_maj":null,"gplc_prix":null,"e10_maj":null,"e10_prix":null,"sp98_maj":null,"sp98_prix":null,"pop":"R"},{"lat":46.573,"lon":4.904,"brand":null,"adresse":"22 avenue du Clos Mouron, 71700 Tournus","gazole_maj":"2023-10-15 21:00:00","gazole_prix":1.869,"sp95_maj":null,"sp95_prix":null,"e85_maj":null,"e85_prix":null,"gplc_maj":null,"gplc_prix":null,"e10_maj":"2023-10-15 21:00:00","e10_prix":1.849,"sp98_maj":"2023-10-15 21:00:00","sp98_prix":1.949,"pop":"R"},{"lat":43.059,"lon":2.214,"brand":"Esso Express","adresse":"23 AVENUE CAMILLE BOUCHE, 11300 Limoux","gazole_maj":"2023-10-14 04:02:00","gazole_prix":1.899,"sp95_maj":null,"sp95_prix":null,"e85_maj":"2023-10-14 04:02:00","e85_prix":1.039,"gplc_maj":null,"gplc_prix":null,"e10_maj":"2023-10-14 04:02:00","e10_prix":1.869,"sp98_maj":"2023-10-14 04:02:00","sp98_prix":1.949,"pop":"R"},{"lat":44.1171,"lon":3.07,"brand":"G\u00e9ant","adresse":"150 Boulevard Georges Brassens, 12100 Millau","gazole_maj":"2023-09-20 07:15:00","gazole_prix":1.939,"sp95_maj":null,"sp95_prix":null,"e85_maj":null,"e85_prix":null,"gplc_maj":"2023-05-05 07:29:09","gplc_prix":0.949,"e10_maj":"2023-09-26 07:05:23","e10_prix":1.969,"sp98_maj":"2023-09-22 07:06:18","sp98_prix":2.039,"pop":"R"},{"lat":50.956,"lon":1.867,"brand":"BP","adresse":"Rue Mollien, 62100 Calais","gazole_maj":"2023-10-16 13:35:00","gazole_prix":2.019,"sp95_maj":null,"sp95_prix":null,"e85_maj":null,"e85_prix":null,"gplc_maj":"2023-07-26 12:45:00","gplc_prix":1.049,"e10_maj":"2023-10-16 13:35:00","e10_prix":1.939,"sp98_maj":"2023-10-16 13:35:00","sp98_prix":2.059,"pop":"R"},{"lat":43.649,"lon":1.484,"brand":"KAI","adresse":"AVENUE DE BAYONNE, 31240 L'Union","gazole_maj":"2023-10-16 10:05:33","gazole_prix":1.99,"sp95_maj":"2023-10-16 10:05:33","sp95_prix":1.99,"e85_maj":null,"e85_prix":null,"gplc_maj":null,"gplc_prix":null,"e10_maj":"2023-10-16 10:05:34","e10_prix":1.99,"sp98_maj":null,"sp98_prix":null,"pop":"R"},{"lat":45.146,"lon":0.005,"brand":"Intermarch\u00e9","adresse":"59 Avenue d'Aquitaine, 24490 La Roche-Chalais","gazole_maj":"2023-10-16 08:31:43","gazole_prix":1.845,"sp95_maj":"2023-10-14 19:30:00","sp95_prix":1.906,"e85_maj":"2023-10-13 09:02:26","e85_prix":0.998,"gplc_maj":"2023-10-13 09:02:26","gplc_prix":1.023,"e10_maj":"2023-10-16 08:31:43","e10_prix":1.775,"sp98_maj":"2023-10-14 19:30:00","sp98_prix":1.932,"pop":"R"},{"lat":44.3461,"lon":4.7552,"brand":"Intermarch\u00e9","adresse":"Rond-Point de l'Europe, 26130 Saint-Paul-Trois-Ch\u00e2teaux","gazole_maj":"2023-10-16 09:38:11","gazole_prix":1.784,"sp95_maj":"2023-10-16 09:38:11","sp95_prix":1.752,"e85_maj":"2023-10-12 09:41:23","e85_prix":0.998,"gplc_maj":null,"gplc_prix":null,"e10_maj":"2023-10-16 09:38:12","e10_prix":1.719,"sp98_maj":null,"sp98_prix":null,"pop":"R"},{"lat":50.734,"lon":1.698,"brand":"Total","adresse":"93 bis AVENUE DE LA FORET, 62360 La Capelle-l\u00e8s-Boulogne","gazole_maj":"2023-10-14 09:28:10","gazole_prix":1.968,"sp95_maj":null,"sp95_prix":null,"e85_maj":null,"e85_prix":null,"gplc_maj":null,"gplc_prix":null,"e10_maj":"2023-10-14 09:28:11","e10_prix":1.899,"sp98_maj":"2023-10-14 09:28:11","sp98_prix":1.99,"pop":"R"},{"lat":43.3187,"lon":5.3905,"brand":null,"adresse":"26 CHEMIN DE STE MARTHE, 13014 Marseille","gazole_maj":"2023-10-16 06:00:00","gazole_prix":1.949,"sp95_maj":null,"sp95_prix":null,"e85_maj":"2023-10-16 06:00:00","e85_prix":0.999,"gplc_maj":null,"gplc_prix":null,"e10_maj":"2023-10-16 06:00:00","e10_prix":1.949,"sp98_maj":"2023-10-16 06:00:00","sp98_prix":1.999,"pop":"R"},{"lat":44.076,"lon":4.586,"brand":null,"adresse":"RD 310, 30330 Gaujac","gazole_maj":"2023-10-12 09:37:40","gazole_prix":1.899,"sp95_maj":null,"sp95_prix":null,"e85_maj":null,"e85_prix":null,"gplc_maj":null,"gplc_prix":null,"e10_maj":"2023-10-13 08:32:34","e10_prix":1.869,"sp98_maj":"2023-10-13 08:32:36","sp98_prix":1.989,"pop":"R"},{"lat":44.502,"lon":1.186,"brand":"Intermarch\u00e9","adresse":"Chemin des Gaulies, 46220 Prayssac","gazole_maj":"2023-10-14 19:00:00","gazole_prix":1.928,"sp95_maj":null,"sp95_prix":null,"e85_maj":"2023-09-29 16:11:54","e85_prix":0.998,"gplc_maj":null,"gplc_prix":null,"e10_maj":"2023-10-14 19:00:00","e10_prix":1.892,"sp98_maj":"2023-10-14 19:00:00","sp98_prix":1.955,"pop":"R"},{"lat":45.763,"lon":4.877,"brand":null,"adresse":"72 COURS TOLSTOI, 69100 Villeurbanne","gazole_maj":"2023-10-14 00:00:00","gazole_prix":2.059,"sp95_maj":null,"sp95_prix":null,"e85_maj":null,"e85_prix":null,"gplc_maj":null,"gplc_prix":null,"e10_maj":"2023-10-14 00:00:00","e10_prix":1.959,"sp98_maj":"2023-10-14 00:00:00","sp98_prix":2.079,"pop":"R"},{"lat":48.954,"lon":2.912,"brand":null,"adresse":"42 ALL\u00c9E JEAN LOUIS BARRAULT, 77100 Meaux","gazole_maj":"2023-10-12 10:50:21","gazole_prix":1.919,"sp95_maj":"2023-10-12 10:50:21","sp95_prix":1.929,"e85_maj":null,"e85_prix":null,"gplc_maj":null,"gplc_prix":null,"e10_maj":"2023-10-12 10:50:22","e10_prix":1.899,"sp98_maj":null,"sp98_prix":null,"pop":"R"},{"lat":45.475,"lon":6.528,"brand":null,"adresse":"427 AVENUE DES THERMES, 73600 Salins-Fontaine","gazole_maj":"2023-10-15 22:00:00","gazole_prix":1.929,"sp95_maj":null,"sp95_prix":null,"e85_maj":null,"e85_prix":null,"gplc_maj":null,"gplc_prix":null,"e10_maj":"2023-10-15 22:00:00","e10_prix":1.899,"sp98_maj":"2023-10-15 22:00:00","sp98_prix":1.999,"pop":"R"},{"lat":43.6432,"lon":2.0464,"brand":null,"adresse":"444 Avenue de Cocagne, 81220 Guitalens-L'Albar\u00e8de","gazole_maj":"2023-08-09 06:38:51","gazole_prix":1.99,"sp95_maj":"2023-08-03 18:59:16","sp95_prix":1.99,"e85_maj":null,"e85_prix":null,"gplc_maj":null,"gplc_prix":null,"e10_maj":null,"e10_prix":null,"sp98_maj":"2023-08-03 18:59:16","sp98_prix":1.99,"pop":"R"},{"lat":44.476,"lon":0.951,"brand":null,"adresse":"ZONE DU BOSCLA, 47500 Saint-Vite","gazole_maj":"2023-10-16 09:16:49","gazole_prix":1.84,"sp95_maj":"2023-10-16 09:16:49","sp95_prix":1.807,"e85_maj":"2023-08-29 16:50:08","e85_prix":0.998,"gplc_maj":null,"gplc_prix":null,"e10_maj":"2023-10-16 09:16:50","e10_prix":1.763,"sp98_maj":"2023-10-16 09:16:50","sp98_prix":1.823,"pop":"R"},{"lat":47.4897,"lon":6.9223,"brand":null,"adresse":"37 Rue Alfred P\u00e9chin, 90500 Beaucourt","gazole_maj":"2023-10-12 08:07:17","gazole_prix":1.95,"sp95_maj":"2023-10-12 08:07:17","sp95_prix":1.95,"e85_maj":null,"e85_prix":null,"gplc_maj":null,"gplc_prix":null,"e10_maj":null,"e10_prix":null,"sp98_maj":"2023-10-12 08:07:17","sp98_prix":1.97,"pop":"R"},{"lat":43.7238,"lon":7.2558,"brand":null,"adresse":"63 BOULEVARD GORBELLA, 6100 Nice","gazole_maj":"2023-10-14 00:00:00","gazole_prix":2.009,"sp95_maj":null,"sp95_prix":null,"e85_maj":null,"e85_prix":null,"gplc_maj":null,"gplc_prix":null,"e10_maj":"2023-10-14 00:00:00","e10_prix":2.069,"sp98_maj":"2023-10-14 00:00:00","sp98_prix":2.169,"pop":"R"},{"lat":45.6143,"lon":5.2251,"brand":"Carrefour","adresse":"25 Rue des Sayes, 38080 L'Isle-d'Abeau","gazole_maj":"2023-10-16 08:26:00","gazole_prix":1.843,"sp95_maj":"2023-10-16 08:26:00","sp95_prix":1.799,"e85_maj":"2023-10-16 08:26:00","e85_prix":0.928,"gplc_maj":"2023-10-05 20:12:00","gplc_prix":0.89,"e10_maj":"2023-10-16 08:26:00","e10_prix":1.748,"sp98_maj":"2023-10-16 08:26:00","sp98_prix":1.822,"pop":"R"},{"lat":48.521,"lon":-1.339,"brand":"Syst\u00e8me U","adresse":"ZONE DE BEAUFOUR, 50240 Saint-James","gazole_maj":"2023-10-12 10:26:51","gazole_prix":1.829,"sp95_maj":"2023-10-12 10:26:52","sp95_prix":1.839,"e85_maj":null,"e85_prix":null,"gplc_maj":null,"gplc_prix":null,"e10_maj":null,"e10_prix":null,"sp98_maj":"2023-10-12 10:26:52","sp98_prix":1.869,"pop":"R"},{"lat":45.657,"lon":5.911,"brand":"Leclerc","adresse":"214 Chemin de la Boisi\u00e8re, 73420 Drumettaz-Clarafond","gazole_maj":"2023-10-16 08:00:00","gazole_prix":1.795,"sp95_maj":"2023-10-16 08:00:00","sp95_prix":1.758,"e85_maj":"2023-10-06 08:00:00","e85_prix":0.951,"gplc_maj":"2023-09-25 08:00:00","gplc_prix":1.025,"e10_maj":null,"e10_prix":null,"sp98_maj":"2023-10-16 08:00:00","sp98_prix":1.807,"pop":"R"},{"lat":46.996,"lon":-0.248,"brand":null,"adresse":"2 passage du commerce, 79100 Thouars","gazole_maj":"2023-10-06 08:25:09","gazole_prix":1.939,"sp95_maj":"2023-10-06 08:25:09","sp95_prix":1.969,"e85_maj":null,"e85_prix":null,"gplc_maj":null,"gplc_prix":null,"e10_maj":null,"e10_prix":null,"sp98_maj":null,"sp98_prix":null,"pop":"R"},{"lat":45.845,"lon":5.07,"brand":"Shell","adresse":"AUTOROUTE A42, AIRE DE LYON-DAGNEUX, 1120 Dagneux","gazole_maj":"2023-10-16 13:00:00","gazole_prix":2.091,"sp95_maj":null,"sp95_prix":null,"e85_maj":null,"e85_prix":null,"gplc_maj":null,"gplc_prix":null,"e10_maj":"2023-10-16 13:00:00","e10_prix":2.041,"sp98_maj":"2023-10-16 13:00:00","sp98_prix":2.161,"pop":"A"},{"lat":50.2595,"lon":3.4184,"brand":null,"adresse":"2 RUE DE VALENCIENNES, 59198 Haspres","gazole_maj":"2023-10-11 08:56:09","gazole_prix":1.96,"sp95_maj":"2023-10-11 08:56:09","sp95_prix":1.96,"e85_maj":null,"e85_prix":null,"gplc_maj":null,"gplc_prix":null,"e10_maj":null,"e10_prix":null,"sp98_maj":"2023-10-11 08:56:09","sp98_prix":1.99,"pop":"R"},{"lat":41.7855,"lon":8.9793,"brand":"VITO","adresse":"RTE N 196, 20140 Petreto-Bicchisano","gazole_maj":"2023-10-16 06:55:05","gazole_prix":1.995,"sp95_maj":"2023-10-16 06:55:05","sp95_prix":1.949,"e85_maj":null,"e85_prix":null,"gplc_maj":null,"gplc_prix":null,"e10_maj":null,"e10_prix":null,"sp98_maj":null,"sp98_prix":null,"pop":"R"},{"lat":48.953,"lon":2.666,"brand":"Total","adresse":"CHEMIN DE COMPANS, 77410 Claye-Souilly","gazole_maj":"2023-10-13 18:28:43","gazole_prix":1.99,"sp95_maj":null,"sp95_prix":null,"e85_maj":"2023-10-05 19:19:19","e85_prix":0.994,"gplc_maj":null,"gplc_prix":null,"e10_maj":"2023-10-12 19:20:43","e10_prix":1.954,"sp98_maj":"2023-09-28 08:56:38","sp98_prix":1.99,"pop":"R"},{"lat":45.46,"lon":-0.143,"brand":"Total","adresse":"Lieu-Dit Plaisance, 16300 Barbezieux-Saint-Hilaire","gazole_maj":"2023-10-13 21:00:00","gazole_prix":1.924,"sp95_maj":null,"sp95_prix":null,"e85_maj":null,"e85_prix":null,"gplc_maj":"2023-09-15 05:30:00","gplc_prix":0.88,"e10_maj":"2023-10-12 21:30:00","e10_prix":1.841,"sp98_maj":"2023-10-12 21:30:00","sp98_prix":1.951,"pop":"A"},{"lat":48.1443,"lon":-3.3906,"brand":null,"adresse":"Rue de l'Ell\u00e9, 56770 Plouray","gazole_maj":"2023-10-13 09:23:45","gazole_prix":1.87,"sp95_maj":"2023-10-05 09:29:16","sp95_prix":1.935,"e85_maj":null,"e85_prix":null,"gplc_maj":null,"gplc_prix":null,"e10_maj":null,"e10_prix":null,"sp98_maj":null,"sp98_prix":null,"pop":"R"},{"lat":48.9,"lon":2.344,"brand":null,"adresse":"30 AV PTE CLIGNANCOURT, 75018 Paris","gazole_maj":"2023-10-16 00:01:00","gazole_prix":1.99,"sp95_maj":null,"sp95_prix":null,"e85_maj":null,"e85_prix":null,"gplc_maj":null,"gplc_prix":null,"e10_maj":"2023-10-16 00:01:00","e10_prix":1.966,"sp98_maj":null,"sp98_prix":null,"pop":"R"},{"lat":46.984,"lon":-1.246,"brand":"Total","adresse":"RN 753 - ROUTE DE MONTAIGU, 85600 Montaigu-Vend\u00e9e","gazole_maj":"2023-09-08 10:57:54","gazole_prix":1.99,"sp95_maj":"2023-09-08 10:57:54","sp95_prix":1.99,"e85_maj":null,"e85_prix":null,"gplc_maj":null,"gplc_prix":null,"e10_maj":null,"e10_prix":null,"sp98_maj":null,"sp98_prix":null,"pop":"R"},{"lat":47.387,"lon":-1.026,"brand":"Ind\u00e9pendant sans enseigne","adresse":"330 Rue du G\u00e9n\u00e9ral de Gaulle, 44370 Loireauxence","gazole_maj":"2023-09-22 09:45:27","gazole_prix":2.02,"sp95_maj":null,"sp95_prix":null,"e85_maj":null,"e85_prix":null,"gplc_maj":null,"gplc_prix":null,"e10_maj":null,"e10_prix":null,"sp98_maj":"2023-08-22 08:42:44","sp98_prix":2.09,"pop":"R"},{"lat":49.284,"lon":-1.567,"brand":"Intermarch\u00e9","adresse":"ZA DE L ETRIER, 50250 La Haye","gazole_maj":"2023-10-14 19:30:00","gazole_prix":1.829,"sp95_maj":"2023-10-16 14:00:00","sp95_prix":1.819,"e85_maj":null,"e85_prix":null,"gplc_maj":null,"gplc_prix":null,"e10_maj":"2023-10-16 14:00:00","e10_prix":1.784,"sp98_maj":null,"sp98_prix":null,"pop":"R"},{"lat":44.619,"lon":-1.074,"brand":"Syst\u00e8me U","adresse":"Centre Commercial Grand Large Avenue de C\u00e9sar\u00e9e, 33470 Gujan-Mestras","gazole_maj":"2023-10-16 10:17:27","gazole_prix":1.848,"sp95_maj":null,"sp95_prix":null,"e85_maj":null,"e85_prix":null,"gplc_maj":"2023-10-11 07:46:58","gplc_prix":0.93,"e10_maj":"2023-10-16 10:17:28","e10_prix":1.781,"sp98_maj":"2023-10-14 09:39:39","sp98_prix":1.85,"pop":"R"},{"lat":48.57,"lon":-4.512,"brand":"Leclerc","adresse":"rue de Verdun - La Gare, 29870 Lannilis","gazole_maj":"2023-10-16 09:03:02","gazole_prix":1.794,"sp95_maj":"2023-10-14 09:15:06","sp95_prix":1.77,"e85_maj":"2023-10-12 09:03:13","e85_prix":0.911,"gplc_maj":null,"gplc_prix":null,"e10_maj":"2023-10-14 09:15:06","e10_prix":1.726,"sp98_maj":"2023-10-14 09:15:06","sp98_prix":1.799,"pop":"R"},{"lat":44.045,"lon":4.787,"brand":"Ind\u00e9pendant sans enseigne","adresse":"ROUTE D'AVIGNON, 30150 Roquemaure","gazole_maj":"2023-09-22 18:25:44","gazole_prix":1.999,"sp95_maj":null,"sp95_prix":null,"e85_maj":"2023-07-18 10:21:04","e85_prix":1.199,"gplc_maj":null,"gplc_prix":null,"e10_maj":"2023-09-14 09:13:51","e10_prix":2.049,"sp98_maj":"2023-09-14 09:13:51","sp98_prix":2.099,"pop":"R"},{"lat":48.869,"lon":2.448,"brand":"BP","adresse":"16 Boulevard Aristide Briand, 93100 Montreuil","gazole_maj":"2023-10-14 00:00:00","gazole_prix":2.029,"sp95_maj":null,"sp95_prix":null,"e85_maj":null,"e85_prix":null,"gplc_maj":null,"gplc_prix":null,"e10_maj":"2023-10-14 00:00:00","e10_prix":1.999,"sp98_maj":"2023-10-14 00:00:00","sp98_prix":2.099,"pop":"R"},{"lat":43.253,"lon":5.397,"brand":null,"adresse":"365 Avenue de Mazargues, 13008 Marseille","gazole_maj":"2023-10-13 07:29:23","gazole_prix":1.829,"sp95_maj":null,"sp95_prix":null,"e85_maj":"2023-09-30 08:32:24","e85_prix":1.019,"gplc_maj":null,"gplc_prix":null,"e10_maj":"2023-10-13 07:29:24","e10_prix":1.789,"sp98_maj":null,"sp98_prix":null,"pop":"R"},{"lat":47.355,"lon":0.817,"brand":"Simply Market","adresse":"62 CHEMIN DE LA BUSSARDIERE, 37270 V\u00e9retz","gazole_maj":"2023-10-16 08:00:35","gazole_prix":1.833,"sp95_maj":null,"sp95_prix":null,"e85_maj":"2023-10-16 08:00:35","e85_prix":0.998,"gplc_maj":null,"gplc_prix":null,"e10_maj":"2023-10-16 08:00:36","e10_prix":1.763,"sp98_maj":"2023-10-14 19:30:00","sp98_prix":1.825,"pop":"R"},{"lat":44.3967,"lon":0.8063,"brand":"Intermarch\u00e9","adresse":"Avenue de la Myre Mory, 47140 Saint-Sylvestre-sur-Lot","gazole_maj":"2023-10-11 11:42:35","gazole_prix":1.869,"sp95_maj":"2023-10-11 11:42:35","sp95_prix":1.889,"e85_maj":null,"e85_prix":null,"gplc_maj":null,"gplc_prix":null,"e10_maj":null,"e10_prix":null,"sp98_maj":"2023-10-11 11:42:35","sp98_prix":1.899,"pop":"R"},{"lat":46.298,"lon":-0.4264,"brand":"Elan","adresse":"1675 Route de Niort, 79230 Aiffres","gazole_maj":"2023-09-05 07:00:00","gazole_prix":1.99,"sp95_maj":"2023-03-01 06:25:50","sp95_prix":1.99,"e85_maj":null,"e85_prix":null,"gplc_maj":null,"gplc_prix":null,"e10_maj":null,"e10_prix":null,"sp98_maj":null,"sp98_prix":null,"pop":"R"},{"lat":43.856,"lon":7.227,"brand":null,"adresse":"2 avenue Charles David, 6670 Levens","gazole_maj":"2023-09-29 18:00:00","gazole_prix":2.049,"sp95_maj":"2023-09-29 18:00:00","sp95_prix":2.18,"e85_maj":null,"e85_prix":null,"gplc_maj":null,"gplc_prix":null,"e10_maj":null,"e10_prix":null,"sp98_maj":"2023-09-29 18:00:00","sp98_prix":2.222,"pop":"R"},{"lat":49.1792,"lon":6.0536,"brand":null,"adresse":"A4 Aire De Metz, 57855 Saint-Privat-la-Montagne","gazole_maj":"2023-03-17 13:01:21","gazole_prix":1.978,"sp95_maj":null,"sp95_prix":null,"e85_maj":null,"e85_prix":null,"gplc_maj":null,"gplc_prix":null,"e10_maj":"2023-03-17 13:01:21","e10_prix":1.955,"sp98_maj":"2023-03-17 13:01:21","sp98_prix":2.065,"pop":"A"},{"lat":47.457,"lon":-0.397,"brand":"Syst\u00e8me U","adresse":"ZA de la Perriere, 49800 Loire-Authion","gazole_maj":"2023-10-10 10:46:02","gazole_prix":1.839,"sp95_maj":null,"sp95_prix":null,"e85_maj":"2023-10-09 12:21:36","e85_prix":1.029,"gplc_maj":null,"gplc_prix":null,"e10_maj":"2023-10-10 10:46:02","e10_prix":1.819,"sp98_maj":"2023-10-09 12:21:37","sp98_prix":1.895,"pop":"R"},{"lat":45.238,"lon":0.348,"brand":"Intermarch\u00e9","adresse":"Route de Mussidan, 24600 Rib\u00e9rac","gazole_maj":"2023-10-15 12:09:20","gazole_prix":1.803,"sp95_maj":null,"sp95_prix":null,"e85_maj":"2023-10-13 08:53:54","e85_prix":0.998,"gplc_maj":null,"gplc_prix":null,"e10_maj":"2023-10-15 12:09:20","e10_prix":1.77,"sp98_maj":"2023-10-15 12:09:20","sp98_prix":1.838,"pop":"R"},{"lat":50.454,"lon":2.607,"brand":"Carrefour Market","adresse":"Rue de la Plaine, 62620 Barlin","gazole_maj":"2023-10-16 16:05:57","gazole_prix":1.864,"sp95_maj":"2023-10-16 16:05:57","sp95_prix":1.859,"e85_maj":"2023-10-16 16:05:57","e85_prix":1.017,"gplc_maj":null,"gplc_prix":null,"e10_maj":"2023-10-16 16:05:57","e10_prix":1.821,"sp98_maj":null,"sp98_prix":null,"pop":"R"},{"lat":48.925,"lon":2.234,"brand":null,"adresse":"AUTOROUTE A 86 - LA PRAIRIE, 92700 Colombes","gazole_maj":"2023-10-16 13:00:00","gazole_prix":2.134,"sp95_maj":null,"sp95_prix":null,"e85_maj":null,"e85_prix":null,"gplc_maj":"2023-10-16 13:00:00","gplc_prix":1.336,"e10_maj":"2023-10-16 13:00:00","e10_prix":2.031,"sp98_maj":"2023-10-16 13:00:00","sp98_prix":2.151,"pop":"A"},{"lat":47.4553,"lon":5.5888,"brand":"Avia","adresse":"2 Avenue Charles Couyba, 70100 Arc-l\u00e8s-Gray","gazole_maj":"2023-10-09 19:45:00","gazole_prix":1.979,"sp95_maj":"2023-09-16 19:45:00","sp95_prix":2.069,"e85_maj":"2023-09-16 19:45:00","e85_prix":1.029,"gplc_maj":null,"gplc_prix":null,"e10_maj":null,"e10_prix":null,"sp98_maj":null,"sp98_prix":null,"pop":"R"},{"lat":46.79,"lon":3.966,"brand":"Atac","adresse":"RUE LEDRU ROLLIN, 58170 Luzy","gazole_maj":"2023-09-15 23:59:00","gazole_prix":1.979,"sp95_maj":"2023-09-12 00:00:00","sp95_prix":2.029,"e85_maj":null,"e85_prix":null,"gplc_maj":null,"gplc_prix":null,"e10_maj":"2023-09-12 00:00:00","e10_prix":1.999,"sp98_maj":"2023-09-12 00:00:00","sp98_prix":2.089,"pop":"R"},{"lat":48.878,"lon":2.115,"brand":null,"adresse":"4 AVENUE SIMON VOUET, 78560 Le Port-Marly","gazole_maj":"2023-10-16 00:01:00","gazole_prix":1.899,"sp95_maj":null,"sp95_prix":null,"e85_maj":null,"e85_prix":null,"gplc_maj":null,"gplc_prix":null,"e10_maj":"2023-10-16 00:01:00","e10_prix":1.832,"sp98_maj":"2023-10-16 10:19:55","sp98_prix":1.912,"pop":"R"},{"lat":46.763,"lon":5.599,"brand":null,"adresse":"56 route de voiteur, 39210 Domblans","gazole_maj":"2023-09-29 11:04:34","gazole_prix":1.99,"sp95_maj":null,"sp95_prix":null,"e85_maj":null,"e85_prix":null,"gplc_maj":null,"gplc_prix":null,"e10_maj":"2023-09-29 11:04:34","e10_prix":1.99,"sp98_maj":"2023-09-29 11:04:34","sp98_prix":1.99,"pop":"R"},{"lat":49.028,"lon":2.347,"brand":null,"adresse":"RN 1 - BP4, 95331 Domont","gazole_maj":"2023-10-14 00:00:00","gazole_prix":2.199,"sp95_maj":null,"sp95_prix":null,"e85_maj":null,"e85_prix":null,"gplc_maj":"2023-03-21 12:45:00","gplc_prix":1.089,"e10_maj":"2023-10-14 00:00:00","e10_prix":2.099,"sp98_maj":"2023-10-14 00:00:00","sp98_prix":2.219,"pop":"R"},{"lat":47.512,"lon":5.173,"brand":"Agip","adresse":"Route de Langres, 21120 Til-Ch\u00e2tel","gazole_maj":"2023-09-14 07:44:33","gazole_prix":1.99,"sp95_maj":null,"sp95_prix":null,"e85_maj":"2023-08-17 08:38:17","e85_prix":1.21,"gplc_maj":null,"gplc_prix":null,"e10_maj":"2023-10-06 09:03:37","e10_prix":1.99,"sp98_maj":"2023-10-06 09:03:38","sp98_prix":2.03,"pop":"R"},{"lat":47.8808,"lon":3.5268,"brand":"Atac","adresse":"ROUTE DE JOIGNY, 89380 Appoigny","gazole_maj":"2023-09-15 23:59:00","gazole_prix":1.979,"sp95_maj":"2023-09-15 23:59:00","sp95_prix":2.049,"e85_maj":null,"e85_prix":null,"gplc_maj":null,"gplc_prix":null,"e10_maj":null,"e10_prix":null,"sp98_maj":"2023-09-15 23:59:00","sp98_prix":2.069,"pop":"R"},{"lat":49.135,"lon":4.366,"brand":"Intermarch\u00e9","adresse":"Rue des Tourni\u00e8res, 51400 Mourmelon-le-Grand","gazole_maj":"2023-10-14 19:30:00","gazole_prix":1.899,"sp95_maj":null,"sp95_prix":null,"e85_maj":"2023-10-13 08:33:31","e85_prix":0.998,"gplc_maj":null,"gplc_prix":null,"e10_maj":"2023-10-14 19:30:00","e10_prix":1.829,"sp98_maj":"2023-10-14 19:30:00","sp98_prix":1.909,"pop":"R"},{"lat":50.386,"lon":2.348,"brand":"Intermarch\u00e9","adresse":"RUE DE BETHUNE, 62130 Saint-Pol-sur-Ternoise","gazole_maj":"2023-10-10 16:29:15","gazole_prix":1.826,"sp95_maj":null,"sp95_prix":null,"e85_maj":"2023-10-02 09:20:31","e85_prix":0.998,"gplc_maj":null,"gplc_prix":null,"e10_maj":"2023-10-10 16:29:16","e10_prix":1.792,"sp98_maj":"2023-10-10 16:29:16","sp98_prix":1.855,"pop":"R"},{"lat":44.51,"lon":1.373,"brand":null,"adresse":"RD 811, 46090 Esp\u00e8re","gazole_maj":"2023-10-16 09:07:09","gazole_prix":1.834,"sp95_maj":null,"sp95_prix":null,"e85_maj":"2023-09-28 08:25:50","e85_prix":0.998,"gplc_maj":null,"gplc_prix":null,"e10_maj":"2023-10-15 08:45:31","e10_prix":1.753,"sp98_maj":"2023-10-15 08:45:31","sp98_prix":1.859,"pop":"R"},{"lat":44.7996,"lon":-0.5841,"brand":"Leclerc","adresse":"Rue Pacaris BP 109, 33400 Talence","gazole_maj":"2023-10-16 08:41:46","gazole_prix":1.79,"sp95_maj":"2023-10-16 08:41:46","sp95_prix":1.757,"e85_maj":null,"e85_prix":null,"gplc_maj":null,"gplc_prix":null,"e10_maj":"2023-10-16 08:41:46","e10_prix":1.715,"sp98_maj":null,"sp98_prix":null,"pop":"R"},{"lat":49.896,"lon":3.626,"brand":null,"adresse":"56, rue du jeu de Paume, 2120 Guise","gazole_maj":"2023-10-14 07:48:36","gazole_prix":1.969,"sp95_maj":null,"sp95_prix":null,"e85_maj":"2023-06-23 16:25:18","e85_prix":1.169,"gplc_maj":null,"gplc_prix":null,"e10_maj":"2023-10-13 07:28:15","e10_prix":1.905,"sp98_maj":"2023-07-25 07:13:12","sp98_prix":1.99,"pop":"R"},{"lat":48.705,"lon":-3.022,"brand":"Total","adresse":"RUE DE L'AVENIR, 22290 Pl\u00e9h\u00e9del","gazole_maj":"2023-10-14 07:53:21","gazole_prix":1.983,"sp95_maj":null,"sp95_prix":null,"e85_maj":null,"e85_prix":null,"gplc_maj":"2023-10-14 07:53:21","gplc_prix":0.88,"e10_maj":"2023-10-14 07:53:22","e10_prix":1.924,"sp98_maj":"2023-10-14 07:53:22","sp98_prix":1.99,"pop":"R"},{"lat":47.8561,"lon":6.8205,"brand":null,"adresse":"1 rue de Lorraine, 88560 Saint-Maurice-sur-Moselle","gazole_maj":null,"gazole_prix":null,"sp95_maj":null,"sp95_prix":null,"e85_maj":null,"e85_prix":null,"gplc_maj":null,"gplc_prix":null,"e10_maj":null,"e10_prix":null,"sp98_maj":null,"sp98_prix":null,"pop":"R"},{"lat":48.908,"lon":2.344,"brand":null,"adresse":"56-74 AVENUE MICHELET, 93400 Saint-Ouen-sur-Seine","gazole_maj":"2023-10-16 00:01:00","gazole_prix":1.99,"sp95_maj":null,"sp95_prix":null,"e85_maj":null,"e85_prix":null,"gplc_maj":null,"gplc_prix":null,"e10_maj":"2023-10-16 00:01:00","e10_prix":1.929,"sp98_maj":null,"sp98_prix":null,"pop":"R"},{"lat":48.899,"lon":4.009,"brand":null,"adresse":"13 avenue du general de gaulle, 51130 Blancs-Coteaux","gazole_maj":"2023-10-16 08:38:00","gazole_prix":1.814,"sp95_maj":null,"sp95_prix":null,"e85_maj":"2023-10-16 08:38:00","e85_prix":0.945,"gplc_maj":null,"gplc_prix":null,"e10_maj":"2023-10-16 08:38:00","e10_prix":1.755,"sp98_maj":"2023-10-16 08:38:00","sp98_prix":1.831,"pop":"R"},{"lat":46.38,"lon":6.491,"brand":"Esso Express","adresse":"54 Avenue d'\u00c9vian, 74200 Thonon-les-Bains","gazole_maj":"2023-10-14 11:52:00","gazole_prix":1.909,"sp95_maj":null,"sp95_prix":null,"e85_maj":null,"e85_prix":null,"gplc_maj":null,"gplc_prix":null,"e10_maj":"2023-10-14 11:52:00","e10_prix":1.909,"sp98_maj":"2023-10-14 11:52:00","sp98_prix":1.989,"pop":"R"},{"lat":43.295,"lon":5.48,"brand":"G\u00e9ant","adresse":"Route de la Sabli\u00e8re, 13011 Marseille","gazole_maj":"2023-10-16 08:05:44","gazole_prix":1.819,"sp95_maj":null,"sp95_prix":null,"e85_maj":"2023-10-16 08:05:44","e85_prix":1.009,"gplc_maj":"2023-10-16 08:05:44","gplc_prix":0.939,"e10_maj":"2023-10-16 08:05:44","e10_prix":1.797,"sp98_maj":"2023-10-16 08:05:45","sp98_prix":1.873,"pop":"R"},{"lat":45.0906,"lon":1.9405,"brand":"Ind\u00e9pendant sans enseigne","adresse":"25, avenue des XAINTRIES, 19400 Argentat-sur-Dordogne","gazole_maj":"2023-09-14 08:24:11","gazole_prix":1.99,"sp95_maj":null,"sp95_prix":null,"e85_maj":"2023-09-14 08:24:11","e85_prix":1.299,"gplc_maj":null,"gplc_prix":null,"e10_maj":"2023-09-14 08:24:11","e10_prix":1.99,"sp98_maj":"2023-09-14 08:24:12","sp98_prix":1.99,"pop":"R"},{"lat":43.2741,"lon":5.3871,"brand":null,"adresse":"96 rue Jean Mermoz, 13008 Marseille","gazole_maj":"2023-09-05 17:07:34","gazole_prix":1.849,"sp95_maj":null,"sp95_prix":null,"e85_maj":null,"e85_prix":null,"gplc_maj":null,"gplc_prix":null,"e10_maj":null,"e10_prix":null,"sp98_maj":null,"sp98_prix":null,"pop":"R"},{"lat":46.0974,"lon":5.9641,"brand":null,"adresse":"A40 - KM79 - SENS MILAN MACON, 74520 Valleiry","gazole_maj":"2023-10-16 09:00:00","gazole_prix":1.99,"sp95_maj":null,"sp95_prix":null,"e85_maj":null,"e85_prix":null,"gplc_maj":"2023-10-16 09:00:00","gplc_prix":1.054,"e10_maj":"2023-10-16 09:00:00","e10_prix":1.99,"sp98_maj":"2023-10-16 09:00:00","sp98_prix":1.99,"pop":"A"},{"lat":45.127,"lon":-0.643,"brand":"Leclerc","adresse":"Route de Bordeaux, 33390 Blaye","gazole_maj":"2023-10-16 14:55:00","gazole_prix":1.787,"sp95_maj":null,"sp95_prix":null,"e85_maj":"2023-10-16 14:55:00","e85_prix":0.942,"gplc_maj":null,"gplc_prix":null,"e10_maj":"2023-10-16 14:55:01","e10_prix":1.714,"sp98_maj":"2023-10-16 14:55:01","sp98_prix":1.795,"pop":"R"},{"lat":43.879,"lon":4.85,"brand":"Carrefour Market","adresse":"AVENUE DELATTRE DE TASSIGNY, 13160 Ch\u00e2teaurenard","gazole_maj":"2023-10-10 09:02:20","gazole_prix":1.835,"sp95_maj":null,"sp95_prix":null,"e85_maj":"2023-10-10 09:02:21","e85_prix":1.099,"gplc_maj":null,"gplc_prix":null,"e10_maj":"2023-10-10 09:02:21","e10_prix":1.779,"sp98_maj":null,"sp98_prix":null,"pop":"R"},{"lat":44.2316,"lon":1.5295,"brand":null,"adresse":"AUTOROUTE A20 - AIRE DE BOIS DE DOURRE, 82270 Montalzat","gazole_maj":"2023-10-16 09:00:00","gazole_prix":1.99,"sp95_maj":null,"sp95_prix":null,"e85_maj":"2023-10-16 09:00:00","e85_prix":1.259,"gplc_maj":"2023-10-16 09:00:00","gplc_prix":1.054,"e10_maj":"2023-10-16 09:00:00","e10_prix":1.99,"sp98_maj":"2023-10-16 09:00:00","sp98_prix":1.99,"pop":"A"},{"lat":48.53,"lon":-1.851,"brand":"Syst\u00e8me U","adresse":"LE PUITS SALIOU, 35540 Plerguer","gazole_maj":"2023-09-26 10:11:02","gazole_prix":1.999,"sp95_maj":null,"sp95_prix":null,"e85_maj":null,"e85_prix":null,"gplc_maj":null,"gplc_prix":null,"e10_maj":"2023-09-26 10:11:02","e10_prix":1.969,"sp98_maj":"2023-09-26 10:11:03","sp98_prix":2.069,"pop":"R"},{"lat":46.224,"lon":-0.13,"brand":"Intermarch\u00e9","adresse":"41 route de Poitiers, 79500 Melle","gazole_maj":"2023-10-14 19:34:00","gazole_prix":1.799,"sp95_maj":null,"sp95_prix":null,"e85_maj":"2023-10-09 09:34:43","e85_prix":0.998,"gplc_maj":null,"gplc_prix":null,"e10_maj":"2023-10-14 19:36:23","e10_prix":1.769,"sp98_maj":"2023-10-14 19:36:23","sp98_prix":1.869,"pop":"R"},{"lat":48.906,"lon":2.445,"brand":null,"adresse":"19 AV JEAN JAURES, 93000 Bobigny","gazole_maj":"2023-10-14 00:00:00","gazole_prix":1.949,"sp95_maj":null,"sp95_prix":null,"e85_maj":null,"e85_prix":null,"gplc_maj":null,"gplc_prix":null,"e10_maj":"2023-10-14 00:00:00","e10_prix":1.949,"sp98_maj":"2023-10-14 00:00:00","sp98_prix":2.069,"pop":"R"},{"lat":46.74,"lon":5.916,"brand":"Intermarch\u00e9","adresse":"1 Avenue Jean Jaur\u00e8s, 39300 Champagnole","gazole_maj":"2023-10-15 08:34:00","gazole_prix":1.813,"sp95_maj":null,"sp95_prix":null,"e85_maj":"2023-07-19 08:02:26","e85_prix":0.998,"gplc_maj":null,"gplc_prix":null,"e10_maj":"2023-10-15 08:34:01","e10_prix":1.745,"sp98_maj":"2023-10-15 08:34:01","sp98_prix":1.897,"pop":"R"},{"lat":43.9781,"lon":4.9081,"brand":null,"adresse":"AVENUE PIERRE DE COUBERTIN, 84270 Ved\u00e8ne","gazole_maj":"2023-10-11 13:55:54","gazole_prix":1.877,"sp95_maj":null,"sp95_prix":null,"e85_maj":null,"e85_prix":null,"gplc_maj":null,"gplc_prix":null,"e10_maj":"2023-10-11 13:55:54","e10_prix":1.835,"sp98_maj":"2023-10-11 13:55:54","sp98_prix":1.883,"pop":"R"},{"lat":45.042,"lon":-0.553,"brand":"Carrefour Market","adresse":"Route de Blaye, 33710 Bourg","gazole_maj":"2023-10-13 17:04:58","gazole_prix":1.807,"sp95_maj":null,"sp95_prix":null,"e85_maj":"2023-10-13 17:04:58","e85_prix":0.926,"gplc_maj":null,"gplc_prix":null,"e10_maj":"2023-10-13 17:04:58","e10_prix":1.765,"sp98_maj":"2023-10-13 17:04:58","sp98_prix":1.831,"pop":"R"},{"lat":45.168,"lon":5.755,"brand":null,"adresse":"Rue du Pr\u00e9 Ruffier, 38400 Saint-Martin-d'H\u00e8res","gazole_maj":"2023-10-16 13:10:00","gazole_prix":1.929,"sp95_maj":null,"sp95_prix":null,"e85_maj":null,"e85_prix":null,"gplc_maj":null,"gplc_prix":null,"e10_maj":"2023-10-16 13:10:00","e10_prix":1.879,"sp98_maj":"2023-10-16 13:10:00","sp98_prix":1.999,"pop":"R"},{"lat":43.188,"lon":5.602,"brand":null,"adresse":"chemin du puits de brunet, 13600 La Ciotat","gazole_maj":"2023-10-16 08:46:13","gazole_prix":1.842,"sp95_maj":"2023-10-16 08:46:14","sp95_prix":1.822,"e85_maj":null,"e85_prix":null,"gplc_maj":null,"gplc_prix":null,"e10_maj":"2023-10-16 08:46:14","e10_prix":1.763,"sp98_maj":"2023-10-16 08:46:14","sp98_prix":1.839,"pop":"R"},{"lat":46.08,"lon":3.201,"brand":"Intermarch\u00e9","adresse":"12 avenue des Portes Occitanes, 3800 Gannat","gazole_maj":"2023-10-13 12:02:19","gazole_prix":1.869,"sp95_maj":null,"sp95_prix":null,"e85_maj":"2023-10-13 12:02:19","e85_prix":0.998,"gplc_maj":"2023-10-13 12:02:19","gplc_prix":1.056,"e10_maj":"2023-10-13 12:02:19","e10_prix":1.839,"sp98_maj":"2023-10-13 12:02:19","sp98_prix":1.913,"pop":"R"},{"lat":48.7485,"lon":2.509,"brand":"BP","adresse":"36 Avenue du G\u00e9n\u00e9ral Leclerc, 94470 Boissy-Saint-L\u00e9ger","gazole_maj":"2023-10-14 00:00:00","gazole_prix":2.019,"sp95_maj":null,"sp95_prix":null,"e85_maj":null,"e85_prix":null,"gplc_maj":null,"gplc_prix":null,"e10_maj":"2023-10-14 00:00:00","e10_prix":1.979,"sp98_maj":null,"sp98_prix":null,"pop":"R"},{"lat":46.1341,"lon":5.2888,"brand":"Avia","adresse":"route de la Vavrette, 1250 Tossiat","gazole_maj":"2023-10-12 06:33:21","gazole_prix":1.909,"sp95_maj":"2023-10-14 07:10:41","sp95_prix":1.889,"e85_maj":null,"e85_prix":null,"gplc_maj":null,"gplc_prix":null,"e10_maj":null,"e10_prix":null,"sp98_maj":"2023-10-14 07:10:53","sp98_prix":1.919,"pop":"R"},{"lat":44.344,"lon":3.582,"brand":null,"adresse":"15 route de mende, 48400 Florac Trois Rivi\u00e8res","gazole_maj":"2023-10-13 23:59:00","gazole_prix":1.904,"sp95_maj":null,"sp95_prix":null,"e85_maj":null,"e85_prix":null,"gplc_maj":null,"gplc_prix":null,"e10_maj":"2023-10-13 23:59:00","e10_prix":1.891,"sp98_maj":null,"sp98_prix":null,"pop":"R"},{"lat":48.7771,"lon":-3.0467,"brand":"Intermarch\u00e9","adresse":"56 avenue du G\u00e9n\u00e9ral de Gaulle, 22500 Paimpol","gazole_maj":null,"gazole_prix":null,"sp95_maj":null,"sp95_prix":null,"e85_maj":null,"e85_prix":null,"gplc_maj":null,"gplc_prix":null,"e10_maj":null,"e10_prix":null,"sp98_maj":null,"sp98_prix":null,"pop":"R"},{"lat":48.9576,"lon":2.3825,"brand":null,"adresse":"17 AVENUE MARCEL CACHIN, 93240 Stains","gazole_maj":"2023-10-16 00:01:00","gazole_prix":1.899,"sp95_maj":null,"sp95_prix":null,"e85_maj":null,"e85_prix":null,"gplc_maj":null,"gplc_prix":null,"e10_maj":"2023-10-16 00:01:00","e10_prix":1.829,"sp98_maj":"2023-10-16 00:01:00","sp98_prix":1.916,"pop":"R"},{"lat":45.9079,"lon":1.2925,"brand":"Avia","adresse":"A20 AIRE DE BEAUNE LES MINES, 87280 Limoges","gazole_maj":"2023-10-02 17:52:38","gazole_prix":2.08,"sp95_maj":null,"sp95_prix":null,"e85_maj":"2023-09-25 15:31:28","e85_prix":1.04,"gplc_maj":"2023-07-20 16:36:40","gplc_prix":1.06,"e10_maj":"2023-08-31 15:41:14","e10_prix":2.05,"sp98_maj":"2023-08-31 15:41:14","sp98_prix":2.15,"pop":"A"},{"lat":47.6406,"lon":6.1443,"brand":"Intermarch\u00e9","adresse":"Carrefour de la Vaugine, 70000 Vesoul","gazole_maj":"2023-10-16 09:15:41","gazole_prix":1.84,"sp95_maj":null,"sp95_prix":null,"e85_maj":"2023-07-31 09:15:56","e85_prix":0.998,"gplc_maj":null,"gplc_prix":null,"e10_maj":"2023-10-16 09:15:41","e10_prix":1.79,"sp98_maj":"2023-10-16 09:15:41","sp98_prix":1.83,"pop":"R"},{"lat":43.2793,"lon":2.0938,"brand":"Ind\u00e9pendant sans enseigne","adresse":"ld croix de l'ourmet  RN 113, 11150 Villepinte","gazole_maj":"2023-10-06 09:38:42","gazole_prix":1.867,"sp95_maj":"2023-10-06 09:38:42","sp95_prix":1.873,"e85_maj":null,"e85_prix":null,"gplc_maj":null,"gplc_prix":null,"e10_maj":null,"e10_prix":null,"sp98_maj":"2023-10-06 09:38:42","sp98_prix":1.883,"pop":"R"},{"lat":47.62,"lon":3.198,"brand":"Atac","adresse":"Route de Ouanne, 89520 Saint-Sauveur-en-Puisaye","gazole_maj":"2023-09-15 23:59:00","gazole_prix":1.979,"sp95_maj":"2023-09-15 23:59:00","sp95_prix":2.049,"e85_maj":null,"e85_prix":null,"gplc_maj":null,"gplc_prix":null,"e10_maj":null,"e10_prix":null,"sp98_maj":"2023-09-15 23:59:00","sp98_prix":2.089,"pop":"R"},{"lat":48.5729,"lon":7.7884,"brand":null,"adresse":"49 RTE DU RHIN, 67000 Strasbourg","gazole_maj":"2023-10-16 00:01:00","gazole_prix":1.868,"sp95_maj":null,"sp95_prix":null,"e85_maj":null,"e85_prix":null,"gplc_maj":null,"gplc_prix":null,"e10_maj":"2023-10-16 00:01:00","e10_prix":1.808,"sp98_maj":null,"sp98_prix":null,"pop":"R"},{"lat":44.6499,"lon":4.3245,"brand":"Intermarch\u00e9","adresse":"All\u00e9e de Vals, 7380 Lalevade-d'Ard\u00e8che","gazole_maj":"2023-10-16 08:42:56","gazole_prix":1.816,"sp95_maj":null,"sp95_prix":null,"e85_maj":"2023-10-05 08:18:25","e85_prix":0.998,"gplc_maj":null,"gplc_prix":null,"e10_maj":"2023-10-14 19:30:00","e10_prix":1.789,"sp98_maj":"2023-10-14 19:30:00","sp98_prix":1.869,"pop":"R"},{"lat":45.4885,"lon":6.5277,"brand":null,"adresse":"446 Avenue des XVI E JO D'Hiver, 73600 Mo\u00fbtiers","gazole_maj":"2023-09-27 19:14:21","gazole_prix":1.921,"sp95_maj":null,"sp95_prix":null,"e85_maj":"2023-09-27 19:14:21","e85_prix":1.169,"gplc_maj":null,"gplc_prix":null,"e10_maj":"2023-09-27 19:14:21","e10_prix":1.969,"sp98_maj":"2023-09-27 19:14:22","sp98_prix":2.023,"pop":"R"},{"lat":45.049,"lon":3.894,"brand":"Avia","adresse":"31 Boulevard Mar\u00e9chal Joffre, 43000 Le Puy-en-Velay","gazole_maj":"2023-10-07 10:57:45","gazole_prix":1.939,"sp95_maj":"2023-10-07 10:57:45","sp95_prix":1.999,"e85_maj":null,"e85_prix":null,"gplc_maj":null,"gplc_prix":null,"e10_maj":null,"e10_prix":null,"sp98_maj":null,"sp98_prix":null,"pop":"R"},{"lat":48.743,"lon":1.4252,"brand":"Intermarch\u00e9","adresse":"ZAC DES FORTS, 28500 Cherisy","gazole_maj":"2023-10-14 19:30:00","gazole_prix":1.825,"sp95_maj":"2023-10-14 19:30:00","sp95_prix":1.842,"e85_maj":null,"e85_prix":null,"gplc_maj":null,"gplc_prix":null,"e10_maj":null,"e10_prix":null,"sp98_maj":"2023-10-14 19:30:00","sp98_prix":1.866,"pop":"R"},{"lat":48.907,"lon":2.532,"brand":"Leclerc","adresse":"12 All\u00e9e de la Fosse-Maussoin, 93390 Clichy-sous-Bois","gazole_maj":"2023-10-16 08:37:00","gazole_prix":1.816,"sp95_maj":"2023-10-16 08:37:00","sp95_prix":1.777,"e85_maj":null,"e85_prix":null,"gplc_maj":null,"gplc_prix":null,"e10_maj":"2023-10-16 08:37:00","e10_prix":1.735,"sp98_maj":"2023-10-16 08:37:00","sp98_prix":1.816,"pop":"R"},{"lat":45.1122,"lon":3.4914,"brand":null,"adresse":"56 AVENUE D'AUVERGNE, 43300 Langeac","gazole_maj":"2023-10-03 13:40:26","gazole_prix":1.929,"sp95_maj":null,"sp95_prix":null,"e85_maj":null,"e85_prix":null,"gplc_maj":null,"gplc_prix":null,"e10_maj":"2023-10-03 13:40:27","e10_prix":1.929,"sp98_maj":"2023-09-14 16:14:05","sp98_prix":2.049,"pop":"R"},{"lat":50.024,"lon":4.028,"brand":"Carrefour","adresse":"rue theophile legrand, 59610 Wignehies","gazole_maj":"2023-10-15 00:01:00","gazole_prix":1.84,"sp95_maj":null,"sp95_prix":null,"e85_maj":null,"e85_prix":null,"gplc_maj":null,"gplc_prix":null,"e10_maj":"2023-10-15 00:01:00","e10_prix":1.815,"sp98_maj":"2023-10-15 00:01:00","sp98_prix":1.877,"pop":"R"},{"lat":49.106,"lon":6.949,"brand":"Colruyt","adresse":"Rue Principale, 57980 Diebling","gazole_maj":"2023-10-16 15:25:22","gazole_prix":1.909,"sp95_maj":"2023-10-16 15:25:22","sp95_prix":1.899,"e85_maj":null,"e85_prix":null,"gplc_maj":null,"gplc_prix":null,"e10_maj":"2023-10-16 15:25:22","e10_prix":1.859,"sp98_maj":null,"sp98_prix":null,"pop":"R"},{"lat":43.27,"lon":-0.201,"brand":"Intermarch\u00e9","adresse":"ZAC PYRENEES EST BEARN, 64420 Nousty","gazole_maj":"2023-10-14 18:02:07","gazole_prix":1.864,"sp95_maj":"2023-10-14 18:02:08","sp95_prix":1.869,"e85_maj":"2023-10-13 10:42:43","e85_prix":0.998,"gplc_maj":null,"gplc_prix":null,"e10_maj":"2023-10-14 18:02:08","e10_prix":1.829,"sp98_maj":"2023-10-14 18:02:08","sp98_prix":1.91,"pop":"R"},{"lat":44.185,"lon":0.664,"brand":null,"adresse":"1500 Avenue du Docteur Jean Nogu\u00e8s, 47550 Bo\u00e9","gazole_maj":"2023-10-09 09:58:16","gazole_prix":1.909,"sp95_maj":"2023-10-09 09:58:16","sp95_prix":1.939,"e85_maj":"2023-10-09 09:58:16","e85_prix":1.039,"gplc_maj":"2023-10-09 09:58:16","gplc_prix":1.059,"e10_maj":null,"e10_prix":null,"sp98_maj":null,"sp98_prix":null,"pop":"R"},{"lat":48.638,"lon":2.202,"brand":null,"adresse":"F6 VOIE EXPRESS FONDS PRES, 91460 Marcoussis","gazole_maj":"2023-10-14 00:00:00","gazole_prix":2.199,"sp95_maj":null,"sp95_prix":null,"e85_maj":null,"e85_prix":null,"gplc_maj":"2023-04-17 09:45:39","gplc_prix":1.089,"e10_maj":"2023-10-14 00:00:00","e10_prix":2.089,"sp98_maj":"2023-10-14 00:00:00","sp98_prix":2.209,"pop":"A"},{"lat":48.202,"lon":5.581,"brand":"Avia","adresse":"Rue Carnot, 52150 Saint-Thi\u00e9bault","gazole_maj":"2023-09-18 09:59:57","gazole_prix":1.999,"sp95_maj":"2023-09-18 09:59:57","sp95_prix":2.049,"e85_maj":null,"e85_prix":null,"gplc_maj":null,"gplc_prix":null,"e10_maj":null,"e10_prix":null,"sp98_maj":null,"sp98_prix":null,"pop":"R"},{"lat":43.14,"lon":6.014,"brand":null,"adresse":"ROUTE DE L'UNIVERSITE, 83160 La Valette-du-Var","gazole_maj":"2023-10-16 08:26:00","gazole_prix":1.829,"sp95_maj":"2023-10-16 08:26:00","sp95_prix":1.805,"e85_maj":null,"e85_prix":null,"gplc_maj":null,"gplc_prix":null,"e10_maj":"2023-10-16 08:26:00","e10_prix":1.766,"sp98_maj":"2023-10-16 08:26:00","sp98_prix":1.839,"pop":"R"},{"lat":43.571,"lon":6.959,"brand":"Carrefour Market","adresse":"Z.I. Les Tourrades, 6150 Cannes","gazole_maj":"2023-10-16 07:51:00","gazole_prix":1.845,"sp95_maj":null,"sp95_prix":null,"e85_maj":"2023-10-16 07:51:00","e85_prix":1.002,"gplc_maj":"2023-01-14 14:54:12","gplc_prix":0.999,"e10_maj":"2023-10-16 07:51:00","e10_prix":1.812,"sp98_maj":"2023-10-16 07:51:00","sp98_prix":1.912,"pop":"R"},{"lat":47.166,"lon":0.632,"brand":null,"adresse":"Autoroute A10 Aire de Fontaine Colette, 37800 Saint-\u00c9pain","gazole_maj":"2023-10-14 00:00:00","gazole_prix":2.369,"sp95_maj":null,"sp95_prix":null,"e85_maj":null,"e85_prix":null,"gplc_maj":"2023-08-03 13:35:00","gplc_prix":1.149,"e10_maj":"2023-10-14 00:00:00","e10_prix":2.319,"sp98_maj":"2023-10-14 00:00:00","sp98_prix":2.449,"pop":"A"},{"lat":47.0644,"lon":5.4548,"brand":"CORA","adresse":"7 rn 73, 39100 Choisey","gazole_maj":"2023-10-09 08:42:36","gazole_prix":1.889,"sp95_maj":null,"sp95_prix":null,"e85_maj":null,"e85_prix":null,"gplc_maj":"2023-09-18 10:20:36","gplc_prix":0.999,"e10_maj":"2023-10-09 08:42:36","e10_prix":1.869,"sp98_maj":"2023-10-09 08:42:36","sp98_prix":1.999,"pop":"R"},{"lat":50.7583,"lon":2.6024,"brand":null,"adresse":"70 Route d'Hazebrouck, 59190 Ca\u00ebstre","gazole_maj":"2023-10-16 09:48:08","gazole_prix":1.899,"sp95_maj":null,"sp95_prix":null,"e85_maj":null,"e85_prix":null,"gplc_maj":null,"gplc_prix":null,"e10_maj":"2023-10-16 09:48:09","e10_prix":1.939,"sp98_maj":"2023-10-16 09:48:09","sp98_prix":1.955,"pop":"R"},{"lat":45.056,"lon":1.669,"brand":"Syst\u00e8me U","adresse":"La Peyrague Route de Collonges D38, 19500 Collonges-la-Rouge","gazole_maj":"2023-10-07 19:55:37","gazole_prix":1.898,"sp95_maj":null,"sp95_prix":null,"e85_maj":null,"e85_prix":null,"gplc_maj":null,"gplc_prix":null,"e10_maj":"2023-10-07 19:55:37","e10_prix":1.876,"sp98_maj":"2023-10-07 19:55:37","sp98_prix":1.953,"pop":"R"},{"lat":47.518,"lon":3.26,"brand":"Avia","adresse":"2 Rue de la Montagne, 89520 Sainpuits","gazole_maj":"2023-09-10 22:10:11","gazole_prix":2.04,"sp95_maj":"2023-08-22 00:08:12","sp95_prix":2.08,"e85_maj":null,"e85_prix":null,"gplc_maj":null,"gplc_prix":null,"e10_maj":null,"e10_prix":null,"sp98_maj":"2023-08-22 00:08:12","sp98_prix":2.09,"pop":"R"},{"lat":49.292,"lon":6.539,"brand":null,"adresse":"Route de Sarrelouis, 57320 Bouzonville","gazole_maj":"2023-10-16 08:10:46","gazole_prix":1.899,"sp95_maj":null,"sp95_prix":null,"e85_maj":null,"e85_prix":null,"gplc_maj":null,"gplc_prix":null,"e10_maj":null,"e10_prix":null,"sp98_maj":"2023-10-16 08:10:46","sp98_prix":1.879,"pop":"R"},{"lat":47.348,"lon":2.05,"brand":null,"adresse":"A71 - Aire de salbris la loge, 41300 Theillay","gazole_maj":"2023-10-13 05:50:00","gazole_prix":2.094,"sp95_maj":null,"sp95_prix":null,"e85_maj":"2023-10-13 05:50:00","e85_prix":1.234,"gplc_maj":"2023-10-13 05:50:00","gplc_prix":1.06,"e10_maj":"2023-10-13 05:50:00","e10_prix":2.114,"sp98_maj":"2023-10-13 05:50:00","sp98_prix":2.214,"pop":"A"},{"lat":48.614,"lon":2.48,"brand":null,"adresse":"18 BOULEVARD JEAN JAURES, 91100 Corbeil-Essonnes","gazole_maj":null,"gazole_prix":null,"sp95_maj":null,"sp95_prix":null,"e85_maj":null,"e85_prix":null,"gplc_maj":null,"gplc_prix":null,"e10_maj":null,"e10_prix":null,"sp98_maj":null,"sp98_prix":null,"pop":"R"},{"lat":47.8728,"lon":-1.8777,"brand":"Elan","adresse":"1 Rue de l'\u00c9cusson, 35550 Loh\u00e9ac","gazole_maj":"2023-09-11 11:56:10","gazole_prix":1.98,"sp95_maj":null,"sp95_prix":null,"e85_maj":null,"e85_prix":null,"gplc_maj":null,"gplc_prix":null,"e10_maj":null,"e10_prix":null,"sp98_maj":"2023-09-11 11:56:10","sp98_prix":1.98,"pop":"R"},{"lat":43.544,"lon":5.296,"brand":"Intermarch\u00e9","adresse":"Avenue Charles de Gaulle, 13122 Ventabren","gazole_maj":"2023-10-15 07:39:23","gazole_prix":1.8,"sp95_maj":null,"sp95_prix":null,"e85_maj":"2023-10-03 08:15:02","e85_prix":0.998,"gplc_maj":null,"gplc_prix":null,"e10_maj":"2023-10-15 07:39:23","e10_prix":1.77,"sp98_maj":"2023-10-15 07:39:23","sp98_prix":1.87,"pop":"R"},{"lat":48.292,"lon":2.398,"brand":"Leclerc","adresse":"Rue de Vauluizard, 45330 Le Malesherbois","gazole_maj":"2023-10-16 09:05:27","gazole_prix":1.79,"sp95_maj":null,"sp95_prix":null,"e85_maj":null,"e85_prix":null,"gplc_maj":null,"gplc_prix":null,"e10_maj":"2023-10-16 09:05:27","e10_prix":1.76,"sp98_maj":"2023-10-16 09:05:27","sp98_prix":1.835,"pop":"R"},{"lat":46.702,"lon":4.388,"brand":"Avia","adresse":"37, rue de la R\u00e9publique, 71450 Blanzy","gazole_maj":"2023-09-18 14:43:47","gazole_prix":1.979,"sp95_maj":"2023-09-18 14:43:47","sp95_prix":2.049,"e85_maj":null,"e85_prix":null,"gplc_maj":null,"gplc_prix":null,"e10_maj":null,"e10_prix":null,"sp98_maj":"2023-09-18 14:43:48","sp98_prix":2.089,"pop":"R"},{"lat":45.624,"lon":2.481,"brand":"Avia","adresse":"Viaduc du Chavanon, 19340 Messeix","gazole_maj":"2023-09-29 06:00:00","gazole_prix":2.13,"sp95_maj":null,"sp95_prix":null,"e85_maj":null,"e85_prix":null,"gplc_maj":"2023-04-26 08:39:27","gplc_prix":1.06,"e10_maj":"2023-09-29 06:00:00","e10_prix":2.16,"sp98_maj":"2023-09-29 06:00:00","sp98_prix":2.26,"pop":"A"},{"lat":50.5253,"lon":2.6503,"brand":"Carrefour Market","adresse":"655 Rue de Lille, 62400 B\u00e9thune","gazole_maj":"2023-10-16 12:48:42","gazole_prix":1.863,"sp95_maj":"2023-10-13 11:26:48","sp95_prix":1.879,"e85_maj":null,"e85_prix":null,"gplc_maj":null,"gplc_prix":null,"e10_maj":null,"e10_prix":null,"sp98_maj":"2023-10-13 11:26:48","sp98_prix":1.899,"pop":"R"},{"lat":48.6036,"lon":5.6669,"brand":"Intermarch\u00e9","adresse":"6 rue des Gites, 55140 Vaucouleurs","gazole_maj":"2023-10-14 19:26:12","gazole_prix":1.889,"sp95_maj":"2023-10-14 19:26:12","sp95_prix":1.862,"e85_maj":null,"e85_prix":null,"gplc_maj":null,"gplc_prix":null,"e10_maj":"2023-10-14 19:26:12","e10_prix":1.838,"sp98_maj":null,"sp98_prix":null,"pop":"R"},{"lat":44.622,"lon":-1.018,"brand":"Syst\u00e8me U","adresse":"Avenue de Bordeaux, 33470 Le Teich","gazole_maj":"2023-10-11 10:41:25","gazole_prix":1.879,"sp95_maj":"2023-10-11 10:41:25","sp95_prix":1.88,"e85_maj":null,"e85_prix":null,"gplc_maj":null,"gplc_prix":null,"e10_maj":null,"e10_prix":null,"sp98_maj":"2023-10-11 10:41:25","sp98_prix":1.919,"pop":"R"},{"lat":47.1592,"lon":-1.5129,"brand":null,"adresse":"AUTOROUTE A83 - AIRE DE LA GRASSINI\u00c8RE, 44840 Les Sorini\u00e8res","gazole_maj":"2023-10-16 09:00:00","gazole_prix":1.956,"sp95_maj":null,"sp95_prix":null,"e85_maj":"2023-10-16 09:00:00","e85_prix":0.994,"gplc_maj":null,"gplc_prix":null,"e10_maj":"2023-10-16 09:00:00","e10_prix":1.909,"sp98_maj":"2023-10-16 09:00:00","sp98_prix":1.99,"pop":"A"},{"lat":45.7075,"lon":1.2405,"brand":null,"adresse":"\"Le Vieux Saint Maurice\", 87800 Saint-Maurice-les-Brousses","gazole_maj":"2023-10-09 19:32:42","gazole_prix":1.906,"sp95_maj":"2023-10-09 19:32:43","sp95_prix":1.908,"e85_maj":null,"e85_prix":null,"gplc_maj":null,"gplc_prix":null,"e10_maj":null,"e10_prix":null,"sp98_maj":"2023-10-09 19:32:43","sp98_prix":1.932,"pop":"R"},{"lat":45.745,"lon":3.177,"brand":"Total","adresse":"Route de Clermont, 63800 Cournon-d'Auvergne","gazole_maj":"2023-10-13 18:44:27","gazole_prix":1.974,"sp95_maj":null,"sp95_prix":null,"e85_maj":null,"e85_prix":null,"gplc_maj":null,"gplc_prix":null,"e10_maj":"2023-10-12 19:20:31","e10_prix":1.902,"sp98_maj":"2023-10-11 18:39:04","sp98_prix":1.99,"pop":"R"},{"lat":43.1374,"lon":6.2315,"brand":null,"adresse":"Le Village Pont de Pansard, 83250 La Londe-les-Maures","gazole_maj":"2023-10-14 09:06:32","gazole_prix":1.829,"sp95_maj":null,"sp95_prix":null,"e85_maj":null,"e85_prix":null,"gplc_maj":null,"gplc_prix":null,"e10_maj":"2023-10-14 09:06:32","e10_prix":1.789,"sp98_maj":"2023-10-14 09:06:32","sp98_prix":1.869,"pop":"R"},{"lat":45.241,"lon":4.69,"brand":null,"adresse":"13 AVENUE RHIN ET DANUBE, 7100 Annonay","gazole_maj":"2023-10-16 15:54:59","gazole_prix":1.889,"sp95_maj":"2023-10-16 15:55:00","sp95_prix":1.885,"e85_maj":"2023-09-18 11:26:28","e85_prix":1.175,"gplc_maj":null,"gplc_prix":null,"e10_maj":null,"e10_prix":null,"sp98_maj":null,"sp98_prix":null,"pop":"R"},{"lat":47.347,"lon":-1.163,"brand":"Elan","adresse":"1 RUE DU VAL DE LOIRE, 49530 Or\u00e9e d'Anjou","gazole_maj":"2023-09-05 18:31:02","gazole_prix":1.973,"sp95_maj":"2023-07-24 18:00:14","sp95_prix":1.98,"e85_maj":null,"e85_prix":null,"gplc_maj":null,"gplc_prix":null,"e10_maj":null,"e10_prix":null,"sp98_maj":"2023-04-10 17:44:00","sp98_prix":1.99,"pop":"R"},{"lat":48.5908,"lon":6.4184,"brand":null,"adresse":"AUTOROUTE A33 - AIRE D'ANTHELUPT, 54300 Vitrimont","gazole_maj":"2023-10-16 09:00:00","gazole_prix":1.897,"sp95_maj":null,"sp95_prix":null,"e85_maj":null,"e85_prix":null,"gplc_maj":"2023-10-16 09:00:00","gplc_prix":0.914,"e10_maj":"2023-10-16 09:00:00","e10_prix":1.828,"sp98_maj":"2023-10-16 09:00:00","sp98_prix":1.928,"pop":"A"},{"lat":48.294,"lon":3.195,"brand":"Atac","adresse":"LES HAUTES VEUVES, 89140 Pont-sur-Yonne","gazole_maj":"2023-09-15 23:59:00","gazole_prix":1.969,"sp95_maj":"2023-09-15 23:59:00","sp95_prix":2.049,"e85_maj":"2023-09-15 23:59:00","e85_prix":0.999,"gplc_maj":null,"gplc_prix":null,"e10_maj":null,"e10_prix":null,"sp98_maj":null,"sp98_prix":null,"pop":"R"},{"lat":43.394,"lon":5.135,"brand":"Carrefour","adresse":"RN 568, 13220 Ch\u00e2teauneuf-les-Martigues","gazole_maj":"2023-10-16 08:12:17","gazole_prix":1.818,"sp95_maj":"2023-10-16 08:12:18","sp95_prix":1.802,"e85_maj":null,"e85_prix":null,"gplc_maj":"2023-10-16 08:12:18","gplc_prix":0.888,"e10_maj":"2023-10-16 08:12:18","e10_prix":1.756,"sp98_maj":"2023-10-16 08:12:18","sp98_prix":1.826,"pop":"R"},{"lat":46.9408,"lon":3.2582,"brand":"Elan","adresse":"24, Route de Nevers, 58160 Sauvigny-les-Bois","gazole_maj":"2023-09-13 09:12:05","gazole_prix":1.999,"sp95_maj":"2023-09-13 09:12:06","sp95_prix":1.999,"e85_maj":null,"e85_prix":null,"gplc_maj":null,"gplc_prix":null,"e10_maj":null,"e10_prix":null,"sp98_maj":null,"sp98_prix":null,"pop":"R"},{"lat":44.807,"lon":-0.5734,"brand":"Intermarch\u00e9","adresse":"235 route de Toulouse, 33400 Talence","gazole_maj":"2023-10-16 15:28:19","gazole_prix":1.824,"sp95_maj":"2023-10-16 15:28:19","sp95_prix":1.793,"e85_maj":"2023-09-01 08:40:01","e85_prix":0.998,"gplc_maj":null,"gplc_prix":null,"e10_maj":"2023-10-16 15:28:19","e10_prix":1.761,"sp98_maj":null,"sp98_prix":null,"pop":"R"},{"lat":48.8782,"lon":2.6078,"brand":null,"adresse":"119 AV DU GENDARME CASTERMANT, 77500 Chelles","gazole_maj":"2023-10-16 00:01:00","gazole_prix":1.99,"sp95_maj":null,"sp95_prix":null,"e85_maj":"2023-10-16 00:01:00","e85_prix":0.994,"gplc_maj":"2023-10-16 00:01:00","gplc_prix":1.029,"e10_maj":"2023-10-16 00:01:00","e10_prix":1.934,"sp98_maj":null,"sp98_prix":null,"pop":"R"},{"lat":47.985,"lon":-4.043,"brand":"Ind\u00e9pendant sans enseigne","adresse":"256 Route de Rosporden, 29000 Quimper","gazole_maj":null,"gazole_prix":null,"sp95_maj":null,"sp95_prix":null,"e85_maj":null,"e85_prix":null,"gplc_maj":null,"gplc_prix":null,"e10_maj":null,"e10_prix":null,"sp98_maj":null,"sp98_prix":null,"pop":"R"},{"lat":49.248,"lon":0.963,"brand":"Intermarch\u00e9","adresse":"Route du Neubourg, 27370 Saint-Pierre-des-Fleurs","gazole_maj":"2023-10-16 08:57:08","gazole_prix":1.854,"sp95_maj":null,"sp95_prix":null,"e85_maj":"2023-10-10 06:17:00","e85_prix":0.998,"gplc_maj":null,"gplc_prix":null,"e10_maj":"2023-10-16 08:57:08","e10_prix":1.809,"sp98_maj":"2023-10-16 08:57:09","sp98_prix":1.877,"pop":"R"},{"lat":44.9765,"lon":-1.0674,"brand":"Total","adresse":"RTE DE BORDEAUX, 33680 Lacanau","gazole_maj":"2023-10-13 19:05:56","gazole_prix":1.899,"sp95_maj":null,"sp95_prix":null,"e85_maj":null,"e85_prix":null,"gplc_maj":null,"gplc_prix":null,"e10_maj":"2023-10-06 18:53:53","e10_prix":1.825,"sp98_maj":null,"sp98_prix":null,"pop":"R"},{"lat":44.1145,"lon":0.7047,"brand":"Ind\u00e9pendant sans enseigne","adresse":"Lieu-dit La Garenne, 47220 Fals","gazole_maj":"2023-10-10 10:45:53","gazole_prix":1.92,"sp95_maj":null,"sp95_prix":null,"e85_maj":null,"e85_prix":null,"gplc_maj":null,"gplc_prix":null,"e10_maj":"2023-10-10 10:45:53","e10_prix":1.93,"sp98_maj":null,"sp98_prix":null,"pop":"R"},{"lat":50.778,"lon":1.617,"brand":"Intermarch\u00e9","adresse":"Rue du Bon Air, 62930 Wimereux","gazole_maj":"2023-10-05 09:53:09","gazole_prix":1.959,"sp95_maj":"2023-10-05 09:53:09","sp95_prix":1.929,"e85_maj":null,"e85_prix":null,"gplc_maj":null,"gplc_prix":null,"e10_maj":null,"e10_prix":null,"sp98_maj":"2023-10-05 09:53:10","sp98_prix":1.959,"pop":"R"},{"lat":48.691,"lon":-2.933,"brand":"Carrefour Market","adresse":"Le Chene Vert, 22580 Plouha","gazole_maj":"2023-10-16 09:50:18","gazole_prix":1.846,"sp95_maj":"2023-10-16 09:50:18","sp95_prix":1.837,"e85_maj":null,"e85_prix":null,"gplc_maj":null,"gplc_prix":null,"e10_maj":null,"e10_prix":null,"sp98_maj":"2023-10-16 09:50:18","sp98_prix":1.872,"pop":"R"},{"lat":49.575,"lon":2.999,"brand":"Intermarch\u00e9","adresse":"rue du moulin d'andeux, 60400 Noyon","gazole_maj":"2023-10-14 19:30:00","gazole_prix":1.878,"sp95_maj":null,"sp95_prix":null,"e85_maj":"2023-10-13 07:24:26","e85_prix":0.998,"gplc_maj":null,"gplc_prix":null,"e10_maj":"2023-10-14 19:30:00","e10_prix":1.825,"sp98_maj":"2023-10-14 19:30:00","sp98_prix":1.918,"pop":"R"},{"lat":46.303,"lon":-0.985,"brand":"Intermarch\u00e9","adresse":"114 Avenue du G\u00e9n\u00e9ral de Gaulle, 17230 Marans","gazole_maj":"2023-10-14 19:05:00","gazole_prix":1.798,"sp95_maj":"2023-10-14 19:05:00","sp95_prix":1.834,"e85_maj":null,"e85_prix":null,"gplc_maj":null,"gplc_prix":null,"e10_maj":"2023-10-14 19:05:00","e10_prix":1.795,"sp98_maj":"2023-10-14 19:05:00","sp98_prix":1.862,"pop":"R"},{"lat":50.754,"lon":3.135,"brand":null,"adresse":"AVENUE ROBERT SCHUMANN - C I T, 59223 Roncq","gazole_maj":"2023-10-16 00:01:00","gazole_prix":1.879,"sp95_maj":null,"sp95_prix":null,"e85_maj":null,"e85_prix":null,"gplc_maj":null,"gplc_prix":null,"e10_maj":"2023-10-16 00:01:00","e10_prix":1.833,"sp98_maj":"2023-10-16 00:01:00","sp98_prix":1.912,"pop":"R"},{"lat":49.065,"lon":-1.595,"brand":"Carrefour Market","adresse":"Chemin amour ZA les landelles, 50560 Blainville-sur-Mer","gazole_maj":"2023-10-13 12:30:48","gazole_prix":1.854,"sp95_maj":"2023-10-13 12:30:48","sp95_prix":1.852,"e85_maj":null,"e85_prix":null,"gplc_maj":null,"gplc_prix":null,"e10_maj":null,"e10_prix":null,"sp98_maj":"2023-10-13 12:30:49","sp98_prix":1.87,"pop":"R"},{"lat":44.91,"lon":4.883,"brand":"Total","adresse":"114 Avenue de la Lib\u00e9ration, 26000 Valence","gazole_maj":"2023-10-16 08:03:10","gazole_prix":1.954,"sp95_maj":"2023-10-16 08:03:11","sp95_prix":1.966,"e85_maj":null,"e85_prix":null,"gplc_maj":null,"gplc_prix":null,"e10_maj":null,"e10_prix":null,"sp98_maj":null,"sp98_prix":null,"pop":"R"},{"lat":44.8735,"lon":1.2304,"brand":"Leclerc","adresse":"Chemin des Sables, 24200 Sarlat-la-Can\u00e9da","gazole_maj":"2023-10-13 15:12:05","gazole_prix":1.777,"sp95_maj":null,"sp95_prix":null,"e85_maj":"2023-10-13 15:12:05","e85_prix":0.95,"gplc_maj":"2023-10-13 15:12:06","gplc_prix":0.99,"e10_maj":"2023-10-13 15:12:06","e10_prix":1.724,"sp98_maj":"2023-10-13 15:12:06","sp98_prix":1.807,"pop":"R"},{"lat":43.124,"lon":2.294,"brand":null,"adresse":"100 chemin de la plaine, station service total, 11250 Rouffiac-d'Aude","gazole_maj":"2023-09-14 08:47:00","gazole_prix":1.99,"sp95_maj":"2023-09-14 08:47:00","sp95_prix":1.99,"e85_maj":null,"e85_prix":null,"gplc_maj":null,"gplc_prix":null,"e10_maj":null,"e10_prix":null,"sp98_maj":null,"sp98_prix":null,"pop":"R"},{"lat":47.701,"lon":-0.094,"brand":"Carrefour Market","adresse":"ROUTE DES MOLLANS, 72200 La Fl\u00e8che","gazole_maj":"2023-10-16 15:50:34","gazole_prix":1.829,"sp95_maj":null,"sp95_prix":null,"e85_maj":"2023-10-16 15:50:34","e85_prix":0.994,"gplc_maj":null,"gplc_prix":null,"e10_maj":"2023-10-16 15:50:34","e10_prix":1.79,"sp98_maj":"2023-10-16 15:50:34","sp98_prix":1.844,"pop":"R"},{"lat":47.032,"lon":2.642,"brand":"Intermarch\u00e9","adresse":"2 rue Agn\u00e8s Sorel, 18520 Avord","gazole_maj":"2023-10-14 19:30:00","gazole_prix":1.879,"sp95_maj":null,"sp95_prix":null,"e85_maj":"2023-09-01 08:48:52","e85_prix":0.998,"gplc_maj":null,"gplc_prix":null,"e10_maj":"2023-10-14 19:30:00","e10_prix":1.825,"sp98_maj":"2023-10-14 19:30:00","sp98_prix":1.888,"pop":"R"},{"lat":48.045,"lon":-1.669,"brand":"Syst\u00e8me U","adresse":"Rue Mathurin M\u00e9heut, 35230 Noyal-Ch\u00e2tillon-sur-Seiche","gazole_maj":"2023-10-16 09:48:41","gazole_prix":1.809,"sp95_maj":"2023-10-16 09:48:41","sp95_prix":1.809,"e85_maj":null,"e85_prix":null,"gplc_maj":null,"gplc_prix":null,"e10_maj":"2023-10-16 09:48:42","e10_prix":1.739,"sp98_maj":"2023-10-16 09:48:42","sp98_prix":1.849,"pop":"R"},{"lat":48.778,"lon":-3.232,"brand":"Syst\u00e8me U","adresse":"BL JEAN GUEHENNO, 22220 Tr\u00e9guier","gazole_maj":"2023-10-13 09:50:18","gazole_prix":1.769,"sp95_maj":"2023-10-13 09:50:18","sp95_prix":1.787,"e85_maj":"2023-10-09 09:49:27","e85_prix":0.985,"gplc_maj":null,"gplc_prix":null,"e10_maj":null,"e10_prix":null,"sp98_maj":"2023-10-13 09:50:19","sp98_prix":1.802,"pop":"R"},{"lat":49.431,"lon":2.071,"brand":"Syst\u00e8me U","adresse":"AVENUE NELSON MANDELA, 60000 Beauvais","gazole_maj":"2023-10-13 15:13:22","gazole_prix":1.768,"sp95_maj":"2023-10-13 15:13:22","sp95_prix":1.762,"e85_maj":null,"e85_prix":null,"gplc_maj":null,"gplc_prix":null,"e10_maj":null,"e10_prix":null,"sp98_maj":"2023-10-12 16:12:36","sp98_prix":1.817,"pop":"R"},{"lat":46.28,"lon":6.819,"brand":null,"adresse":"94 Chemin des Vorges, 74360 La Chapelle-d'Abondance","gazole_maj":"2023-10-16 08:26:53","gazole_prix":1.819,"sp95_maj":"2023-10-16 08:26:53","sp95_prix":1.809,"e85_maj":null,"e85_prix":null,"gplc_maj":null,"gplc_prix":null,"e10_maj":"2023-10-16 08:26:53","e10_prix":1.769,"sp98_maj":null,"sp98_prix":null,"pop":"R"},{"lat":43.864,"lon":1.818,"brand":"Intermarch\u00e9","adresse":"LIEU DIT LES ROBERTES, 81310 Lisle-sur-Tarn","gazole_maj":"2023-10-16 13:16:39","gazole_prix":1.793,"sp95_maj":null,"sp95_prix":null,"e85_maj":null,"e85_prix":null,"gplc_maj":null,"gplc_prix":null,"e10_maj":"2023-10-16 13:16:40","e10_prix":1.726,"sp98_maj":"2023-10-16 13:16:40","sp98_prix":1.816,"pop":"R"},{"lat":48.71,"lon":2.86,"brand":"Intermarch\u00e9","adresse":"Rue Bertaux, 77610 Fontenay-Tr\u00e9signy","gazole_maj":"2023-10-15 08:18:13","gazole_prix":1.845,"sp95_maj":null,"sp95_prix":null,"e85_maj":null,"e85_prix":null,"gplc_maj":null,"gplc_prix":null,"e10_maj":"2023-10-15 08:18:13","e10_prix":1.768,"sp98_maj":"2023-10-15 08:18:14","sp98_prix":1.824,"pop":"R"},{"lat":46.265,"lon":-0.009,"brand":"Intermarch\u00e9","adresse":"23 route de Melle, 79120 Lezay","gazole_maj":"2023-10-14 19:00:00","gazole_prix":1.799,"sp95_maj":null,"sp95_prix":null,"e85_maj":null,"e85_prix":null,"gplc_maj":null,"gplc_prix":null,"e10_maj":"2023-10-14 19:00:00","e10_prix":1.789,"sp98_maj":"2023-10-14 19:00:00","sp98_prix":1.859,"pop":"R"},{"lat":43.454,"lon":1.585,"brand":"Intermarch\u00e9","adresse":"Route D\u00e9part. 813 Lieu dit en Rouzaut, 31450 Montgiscard","gazole_maj":"2023-10-16 08:29:47","gazole_prix":1.839,"sp95_maj":null,"sp95_prix":null,"e85_maj":"2023-09-11 07:59:30","e85_prix":0.998,"gplc_maj":null,"gplc_prix":null,"e10_maj":"2023-10-13 18:16:12","e10_prix":1.779,"sp98_maj":"2023-10-13 18:16:13","sp98_prix":1.859,"pop":"R"},{"lat":48.0002,"lon":-4.0899,"brand":null,"adresse":"57 ROUTE DE BREST, 29000 Quimper","gazole_maj":"2023-10-16 00:01:00","gazole_prix":1.878,"sp95_maj":null,"sp95_prix":null,"e85_maj":null,"e85_prix":null,"gplc_maj":null,"gplc_prix":null,"e10_maj":"2023-10-16 00:01:00","e10_prix":1.818,"sp98_maj":"2023-10-16 00:01:00","sp98_prix":1.908,"pop":"R"},{"lat":48.376,"lon":-4.555,"brand":null,"adresse":"19 Avenue 1\u00e8re Dfl, 29200 Brest","gazole_maj":"2023-10-12 10:03:00","gazole_prix":1.805,"sp95_maj":null,"sp95_prix":null,"e85_maj":null,"e85_prix":null,"gplc_maj":null,"gplc_prix":null,"e10_maj":"2023-10-12 10:03:00","e10_prix":1.745,"sp98_maj":"2023-10-12 10:03:00","sp98_prix":1.819,"pop":"R"},{"lat":48.8467,"lon":-0.8872,"brand":"Carrefour Contact","adresse":"Rue Colbert, 14500 Vire Normandie","gazole_maj":"2023-10-09 11:30:26","gazole_prix":1.869,"sp95_maj":"2023-10-09 19:33:35","sp95_prix":1.899,"e85_maj":null,"e85_prix":null,"gplc_maj":null,"gplc_prix":null,"e10_maj":null,"e10_prix":null,"sp98_maj":null,"sp98_prix":null,"pop":"R"},{"lat":48.791,"lon":1.628,"brand":"Intermarch\u00e9","adresse":"Route de Gambais, 78550 Maulette","gazole_maj":"2023-10-16 09:34:48","gazole_prix":1.889,"sp95_maj":"2023-10-16 09:34:49","sp95_prix":1.915,"e85_maj":"2023-10-16 09:34:49","e85_prix":0.998,"gplc_maj":null,"gplc_prix":null,"e10_maj":"2023-10-16 09:34:49","e10_prix":1.824,"sp98_maj":"2023-10-16 09:34:49","sp98_prix":1.905,"pop":"R"},{"lat":48.4081,"lon":-2.9187,"brand":null,"adresse":"le vivier rond point du volozen, 22800 Quintin","gazole_maj":"2023-10-12 08:18:26","gazole_prix":1.82,"sp95_maj":null,"sp95_prix":null,"e85_maj":null,"e85_prix":null,"gplc_maj":null,"gplc_prix":null,"e10_maj":"2023-10-12 08:18:26","e10_prix":1.786,"sp98_maj":"2023-10-12 08:18:27","sp98_prix":1.86,"pop":"R"},{"lat":48.427,"lon":-4.573,"brand":null,"adresse":"Route de St-Renan, 29820 Guilers","gazole_maj":"2023-10-11 16:20:07","gazole_prix":1.805,"sp95_maj":null,"sp95_prix":null,"e85_maj":"2023-10-11 16:20:07","e85_prix":0.945,"gplc_maj":null,"gplc_prix":null,"e10_maj":"2023-10-11 16:20:07","e10_prix":1.762,"sp98_maj":"2023-10-11 16:20:07","sp98_prix":1.819,"pop":"R"},{"lat":43.509,"lon":5.439,"brand":null,"adresse":"RN8 PONT DE L ARC, 13090 Aix-en-Provence","gazole_maj":"2023-10-16 00:01:00","gazole_prix":1.846,"sp95_maj":null,"sp95_prix":null,"e85_maj":"2023-10-16 00:01:00","e85_prix":0.994,"gplc_maj":null,"gplc_prix":null,"e10_maj":"2023-10-16 00:01:00","e10_prix":1.792,"sp98_maj":"2023-10-16 00:01:00","sp98_prix":1.888,"pop":"R"},{"lat":46.9853,"lon":-0.4531,"brand":null,"adresse":"26 av camille jouffrault - Argenton les vall\u00e9es, 79150 Argentonnay","gazole_maj":"2023-10-02 17:23:04","gazole_prix":1.949,"sp95_maj":"2023-10-02 17:23:04","sp95_prix":1.959,"e85_maj":null,"e85_prix":null,"gplc_maj":null,"gplc_prix":null,"e10_maj":null,"e10_prix":null,"sp98_maj":"2023-10-02 17:23:04","sp98_prix":1.979,"pop":"R"},{"lat":45.7807,"lon":4.7677,"brand":null,"adresse":"11, Avenue Guy de Collongue, 69130 \u00c9cully","gazole_maj":"2023-10-16 11:19:37","gazole_prix":1.959,"sp95_maj":"2023-10-16 11:19:37","sp95_prix":1.968,"e85_maj":null,"e85_prix":null,"gplc_maj":null,"gplc_prix":null,"e10_maj":null,"e10_prix":null,"sp98_maj":null,"sp98_prix":null,"pop":"R"},{"lat":47.2271,"lon":2.0532,"brand":null,"adresse":"70 RUE LEO MERIGOT, 18100 Vierzon","gazole_maj":"2023-10-16 00:01:00","gazole_prix":1.879,"sp95_maj":null,"sp95_prix":null,"e85_maj":"2023-10-16 00:01:00","e85_prix":0.994,"gplc_maj":"2023-10-16 00:01:00","gplc_prix":0.989,"e10_maj":"2023-10-16 00:01:00","e10_prix":1.819,"sp98_maj":"2023-10-16 00:01:00","sp98_prix":1.934,"pop":"R"},{"lat":47.01,"lon":-0.756,"brand":"Syst\u00e8me U","adresse":"boulevard Edouard Colbert, 49360 Maul\u00e9vrier","gazole_maj":"2023-10-12 10:27:36","gazole_prix":1.799,"sp95_maj":"2023-10-10 15:12:33","sp95_prix":1.879,"e85_maj":null,"e85_prix":null,"gplc_maj":null,"gplc_prix":null,"e10_maj":"2023-10-12 10:27:36","e10_prix":1.795,"sp98_maj":"2023-10-10 15:12:33","sp98_prix":1.889,"pop":"R"},{"lat":43.594,"lon":5.128,"brand":"Intermarch\u00e9","adresse":"Rue de l'Abb\u00e9 Dureau, 13680 Lan\u00e7on-Provence","gazole_maj":"2023-10-16 10:48:40","gazole_prix":1.899,"sp95_maj":null,"sp95_prix":null,"e85_maj":"2023-10-16 10:48:41","e85_prix":0.999,"gplc_maj":null,"gplc_prix":null,"e10_maj":"2023-10-16 10:48:41","e10_prix":1.849,"sp98_maj":"2023-10-16 10:48:41","sp98_prix":1.999,"pop":"R"},{"lat":49.2976,"lon":6.1652,"brand":"Total","adresse":"Rue de Metz, 57270 Richemont","gazole_maj":"2023-10-13 19:00:08","gazole_prix":1.99,"sp95_maj":null,"sp95_prix":null,"e85_maj":"2023-10-11 08:41:58","e85_prix":0.994,"gplc_maj":null,"gplc_prix":null,"e10_maj":"2023-10-13 19:00:08","e10_prix":1.94,"sp98_maj":"2023-05-23 08:31:16","sp98_prix":1.99,"pop":"R"},{"lat":43.8172,"lon":4.3404,"brand":"Carrefour","adresse":"405 Chemin Bas de Montpellier, 30900 N\u00eemes","gazole_maj":"2023-10-16 08:49:19","gazole_prix":1.782,"sp95_maj":"2023-10-16 08:49:19","sp95_prix":1.748,"e85_maj":null,"e85_prix":null,"gplc_maj":"2023-10-16 08:49:19","gplc_prix":0.959,"e10_maj":"2023-10-16 08:49:19","e10_prix":1.719,"sp98_maj":null,"sp98_prix":null,"pop":"R"},{"lat":47.831,"lon":0.75,"brand":null,"adresse":"47 rue du bal de braye, 72310 Bess\u00e9-sur-Braye","gazole_maj":"2023-10-02 12:17:51","gazole_prix":1.96,"sp95_maj":"2023-10-02 12:17:51","sp95_prix":1.97,"e85_maj":null,"e85_prix":null,"gplc_maj":null,"gplc_prix":null,"e10_maj":null,"e10_prix":null,"sp98_maj":null,"sp98_prix":null,"pop":"R"},{"lat":45.8947,"lon":-0.6034,"brand":null,"adresse":"A10 - AIRE DE FENIOUX OUEST, 17350 Fenioux","gazole_maj":"2023-10-16 00:01:00","gazole_prix":2.164,"sp95_maj":null,"sp95_prix":null,"e85_maj":"2023-10-16 00:01:00","e85_prix":1.194,"gplc_maj":"2023-10-16 00:01:00","gplc_prix":1.149,"e10_maj":"2023-10-16 00:01:00","e10_prix":2.094,"sp98_maj":"2023-10-16 00:01:00","sp98_prix":2.224,"pop":"A"},{"lat":47.129,"lon":6.522,"brand":"Syst\u00e8me U","adresse":"RUE DE LA VERDOLLE, 25390 Orchamps-Vennes","gazole_maj":"2023-10-16 15:01:54","gazole_prix":1.899,"sp95_maj":"2023-10-16 15:01:54","sp95_prix":1.869,"e85_maj":null,"e85_prix":null,"gplc_maj":null,"gplc_prix":null,"e10_maj":null,"e10_prix":null,"sp98_maj":"2023-10-16 15:01:54","sp98_prix":1.909,"pop":"R"},{"lat":48.039,"lon":-0.475,"brand":"Carrefour Express","adresse":"le perray, 53480 Vaiges","gazole_maj":"2023-10-14 15:58:00","gazole_prix":1.929,"sp95_maj":"2023-10-14 15:58:01","sp95_prix":1.909,"e85_maj":null,"e85_prix":null,"gplc_maj":null,"gplc_prix":null,"e10_maj":null,"e10_prix":null,"sp98_maj":"2023-10-14 15:58:01","sp98_prix":1.929,"pop":"R"},{"lat":45.305,"lon":5.623,"brand":null,"adresse":"RN 75 CRUE DE MOIRANS, 38340 Voreppe","gazole_maj":"2023-10-16 00:01:00","gazole_prix":1.878,"sp95_maj":null,"sp95_prix":null,"e85_maj":"2023-10-16 00:01:00","e85_prix":1.089,"gplc_maj":null,"gplc_prix":null,"e10_maj":"2023-10-16 00:01:00","e10_prix":1.807,"sp98_maj":"2023-10-16 00:01:00","sp98_prix":1.893,"pop":"R"},{"lat":46.464,"lon":4.086,"brand":null,"adresse":"le mont, 71600 Vitry-en-Charollais","gazole_maj":"2023-10-16 07:48:45","gazole_prix":1.801,"sp95_maj":"2023-10-12 08:44:53","sp95_prix":1.838,"e85_maj":"2023-10-13 07:46:38","e85_prix":0.988,"gplc_maj":null,"gplc_prix":null,"e10_maj":"2023-10-13 07:46:38","e10_prix":1.766,"sp98_maj":"2023-10-12 08:44:53","sp98_prix":1.888,"pop":"R"},{"lat":48.417,"lon":1.465,"brand":"Total","adresse":"101 Avenue de la R\u00e9publique, 28600 Luisant","gazole_maj":"2023-10-13 20:20:00","gazole_prix":1.938,"sp95_maj":null,"sp95_prix":null,"e85_maj":null,"e85_prix":null,"gplc_maj":null,"gplc_prix":null,"e10_maj":"2023-10-12 20:33:28","e10_prix":1.871,"sp98_maj":"2023-10-12 20:33:28","sp98_prix":1.981,"pop":"R"},{"lat":47.757,"lon":0.861,"brand":null,"adresse":"14 Boulevard Mermoz, 41800 Montoire-sur-le-Loir","gazole_maj":"2023-10-12 17:00:23","gazole_prix":1.84,"sp95_maj":null,"sp95_prix":null,"e85_maj":null,"e85_prix":null,"gplc_maj":null,"gplc_prix":null,"e10_maj":"2023-10-12 17:00:23","e10_prix":1.829,"sp98_maj":"2023-10-12 17:04:43","sp98_prix":1.899,"pop":"R"},{"lat":43.484,"lon":5.383,"brand":null,"adresse":"ZI LES MILLES R. CL. LEDOUX, 13853 Aix-en-Provence","gazole_maj":"2023-10-13 00:01:00","gazole_prix":1.821,"sp95_maj":null,"sp95_prix":null,"e85_maj":"2023-10-13 00:01:00","e85_prix":0.994,"gplc_maj":"2023-10-13 00:01:00","gplc_prix":0.914,"e10_maj":"2023-10-13 00:01:00","e10_prix":1.792,"sp98_maj":"2023-10-13 00:01:00","sp98_prix":1.879,"pop":"R"},{"lat":44.899,"lon":1.475,"brand":"Casino","adresse":"Rue des Aubugues, 46200 Souillac","gazole_maj":"2023-10-14 07:27:07","gazole_prix":1.869,"sp95_maj":null,"sp95_prix":null,"e85_maj":"2023-10-14 07:27:07","e85_prix":1.019,"gplc_maj":null,"gplc_prix":null,"e10_maj":"2023-10-14 07:27:07","e10_prix":1.829,"sp98_maj":null,"sp98_prix":null,"pop":"R"},{"lat":46.846,"lon":-0.483,"brand":"Leclerc","adresse":"Boulevard de Thouars, 79300 Bressuire","gazole_maj":"2023-10-16 09:43:09","gazole_prix":1.778,"sp95_maj":null,"sp95_prix":null,"e85_maj":"2023-10-11 09:30:23","e85_prix":0.931,"gplc_maj":null,"gplc_prix":null,"e10_maj":"2023-10-13 10:12:41","e10_prix":1.713,"sp98_maj":"2023-10-11 09:30:24","sp98_prix":1.826,"pop":"R"},{"lat":44.0896,"lon":6.2375,"brand":"Intermarch\u00e9","adresse":"8 avenue du 8 Mai 1945, 4000 Digne-les-Bains","gazole_maj":"2023-10-13 17:29:54","gazole_prix":1.895,"sp95_maj":"2023-10-13 17:29:54","sp95_prix":1.868,"e85_maj":null,"e85_prix":null,"gplc_maj":"2023-08-21 15:12:36","gplc_prix":0.997,"e10_maj":"2023-10-13 17:29:54","e10_prix":1.832,"sp98_maj":null,"sp98_prix":null,"pop":"R"},{"lat":43.2848,"lon":3.5029,"brand":null,"adresse":"AVENUE BELLA ISLA, 34300 Agde","gazole_maj":"2023-10-16 00:01:00","gazole_prix":1.962,"sp95_maj":null,"sp95_prix":null,"e85_maj":"2023-10-16 00:01:00","e85_prix":1.069,"gplc_maj":null,"gplc_prix":null,"e10_maj":null,"e10_prix":null,"sp98_maj":"2023-10-16 00:01:00","sp98_prix":1.99,"pop":"R"},{"lat":42.992,"lon":2.971,"brand":"Total","adresse":"ROUTE NATIONALE 9, 11540 Roquefort-des-Corbi\u00e8res","gazole_maj":"2023-10-14 09:21:19","gazole_prix":1.946,"sp95_maj":null,"sp95_prix":null,"e85_maj":"2023-10-14 09:21:20","e85_prix":0.994,"gplc_maj":"2023-10-14 09:21:20","gplc_prix":0.959,"e10_maj":"2023-10-14 09:21:20","e10_prix":1.885,"sp98_maj":"2023-10-14 09:21:20","sp98_prix":1.99,"pop":"R"},{"lat":48.708,"lon":7.71,"brand":null,"adresse":"209 AVENUE DE STRASBOURG, 67170 Brumath","gazole_maj":"2023-10-16 00:01:00","gazole_prix":1.89,"sp95_maj":null,"sp95_prix":null,"e85_maj":"2023-10-16 00:01:00","e85_prix":0.994,"gplc_maj":null,"gplc_prix":null,"e10_maj":"2023-10-16 00:01:00","e10_prix":1.814,"sp98_maj":"2023-10-16 00:01:00","sp98_prix":1.908,"pop":"R"},{"lat":46.4872,"lon":-1.7457,"brand":null,"adresse":"Route de talmont, 85180 Les Sables-d'Olonne","gazole_maj":null,"gazole_prix":null,"sp95_maj":null,"sp95_prix":null,"e85_maj":null,"e85_prix":null,"gplc_maj":null,"gplc_prix":null,"e10_maj":null,"e10_prix":null,"sp98_maj":null,"sp98_prix":null,"pop":"R"},{"lat":48.875,"lon":2.119,"brand":null,"adresse":"9 TER QUAI CONTI RN 13, 78430 Louveciennes","gazole_maj":"2023-10-16 00:01:00","gazole_prix":1.99,"sp95_maj":null,"sp95_prix":null,"e85_maj":null,"e85_prix":null,"gplc_maj":"2023-10-16 00:01:00","gplc_prix":1.024,"e10_maj":"2023-10-16 00:01:00","e10_prix":1.96,"sp98_maj":"2023-10-16 00:01:00","sp98_prix":1.99,"pop":"R"},{"lat":47.278,"lon":-2.468,"brand":"Avia","adresse":"ROUTE DU POULIGUEN, 44740 Batz-sur-Mer","gazole_maj":"2023-10-13 00:00:00","gazole_prix":2.033,"sp95_maj":null,"sp95_prix":null,"e85_maj":null,"e85_prix":null,"gplc_maj":null,"gplc_prix":null,"e10_maj":"2023-10-13 00:00:00","e10_prix":1.971,"sp98_maj":"2023-10-13 00:00:00","sp98_prix":2.036,"pop":"R"},{"lat":45.183,"lon":5.734,"brand":null,"adresse":"5 Avenue Jean Perrot, 38100 Grenoble","gazole_maj":"2023-10-16 06:00:00","gazole_prix":1.929,"sp95_maj":null,"sp95_prix":null,"e85_maj":null,"e85_prix":null,"gplc_maj":null,"gplc_prix":null,"e10_maj":"2023-10-16 06:00:00","e10_prix":1.899,"sp98_maj":"2023-10-16 06:00:00","sp98_prix":1.999,"pop":"R"},{"lat":47.836,"lon":-3.164,"brand":null,"adresse":"RN24 - 131 ROUTE ER POPINEC, 56440 Languidic","gazole_maj":"2023-10-16 00:01:00","gazole_prix":1.989,"sp95_maj":null,"sp95_prix":null,"e85_maj":"2023-10-16 00:01:00","e85_prix":0.994,"gplc_maj":null,"gplc_prix":null,"e10_maj":"2023-10-16 00:01:00","e10_prix":1.919,"sp98_maj":"2023-10-16 00:01:00","sp98_prix":1.99,"pop":"R"},{"lat":48.606,"lon":-4.504,"brand":"Intermarch\u00e9","adresse":"1 place du fournil, 29880 Plouguerneau","gazole_maj":null,"gazole_prix":null,"sp95_maj":null,"sp95_prix":null,"e85_maj":null,"e85_prix":null,"gplc_maj":null,"gplc_prix":null,"e10_maj":null,"e10_prix":null,"sp98_maj":null,"sp98_prix":null,"pop":"R"},{"lat":49.485,"lon":1.701,"brand":null,"adresse":"2 ROUTE DE ROUEN, 76220 Gournay-en-Bray","gazole_maj":"2023-10-13 05:48:31","gazole_prix":1.943,"sp95_maj":null,"sp95_prix":null,"e85_maj":null,"e85_prix":null,"gplc_maj":null,"gplc_prix":null,"e10_maj":"2023-10-13 05:48:31","e10_prix":1.904,"sp98_maj":"2023-10-13 05:48:31","sp98_prix":1.99,"pop":"R"},{"lat":49.548,"lon":3.616,"brand":"Carrefour","adresse":"ZAC ILE DE FRANCE, 2000 Laon","gazole_maj":"2023-10-16 05:34:58","gazole_prix":1.844,"sp95_maj":null,"sp95_prix":null,"e85_maj":null,"e85_prix":null,"gplc_maj":null,"gplc_prix":null,"e10_maj":"2023-10-16 05:34:59","e10_prix":1.792,"sp98_maj":"2023-10-16 05:34:59","sp98_prix":1.814,"pop":"R"},{"lat":45.9188,"lon":6.704,"brand":"Syst\u00e8me U","adresse":"91 Avenue de Marlioz, 74190 Passy","gazole_maj":"2023-10-07 19:03:29","gazole_prix":1.899,"sp95_maj":"2023-10-07 19:03:29","sp95_prix":1.925,"e85_maj":"2023-08-05 19:19:47","e85_prix":1.069,"gplc_maj":null,"gplc_prix":null,"e10_maj":"2023-10-07 19:03:29","e10_prix":1.855,"sp98_maj":"2023-10-07 19:03:29","sp98_prix":1.935,"pop":"R"},{"lat":50.719,"lon":1.609,"brand":null,"adresse":"2 BOULEVARD DAUNOU, 62200 Boulogne-sur-Mer","gazole_maj":"2023-10-16 00:01:00","gazole_prix":1.968,"sp95_maj":null,"sp95_prix":null,"e85_maj":"2023-10-16 00:01:00","e85_prix":0.994,"gplc_maj":null,"gplc_prix":null,"e10_maj":"2023-10-16 00:01:00","e10_prix":1.904,"sp98_maj":"2023-10-16 00:01:00","sp98_prix":1.99,"pop":"R"},{"lat":49.3642,"lon":1.0115,"brand":"Intermarch\u00e9","adresse":"Rue du Moulin, 76530 Grand-Couronne","gazole_maj":"2023-10-16 10:14:36","gazole_prix":1.851,"sp95_maj":null,"sp95_prix":null,"e85_maj":null,"e85_prix":null,"gplc_maj":null,"gplc_prix":null,"e10_maj":"2023-10-16 10:14:36","e10_prix":1.798,"sp98_maj":"2023-10-14 18:30:00","sp98_prix":1.863,"pop":"R"},{"lat":43.587,"lon":7.119,"brand":"Esso Express","adresse":"29 BD GENERAL VAUTRIN, 6600 Antibes","gazole_maj":"2023-10-14 04:02:00","gazole_prix":1.919,"sp95_maj":null,"sp95_prix":null,"e85_maj":null,"e85_prix":null,"gplc_maj":null,"gplc_prix":null,"e10_maj":"2023-10-14 04:02:00","e10_prix":1.899,"sp98_maj":"2023-10-14 04:02:00","sp98_prix":1.979,"pop":"R"},{"lat":46.1181,"lon":5.4911,"brand":"Agip","adresse":"AIRE DE CEIGNES HAUT BUGEY, 1430 Ceignes","gazole_maj":"2023-10-16 08:00:00","gazole_prix":2.129,"sp95_maj":null,"sp95_prix":null,"e85_maj":null,"e85_prix":null,"gplc_maj":"2023-10-16 08:00:00","gplc_prix":1.099,"e10_maj":"2023-10-16 08:00:00","e10_prix":2.069,"sp98_maj":"2023-10-16 08:00:00","sp98_prix":2.169,"pop":"A"},{"lat":48.5626,"lon":-3.1656,"brand":"Carrefour","adresse":"rond point kennedy, 22200 Gr\u00e2ces","gazole_maj":"2023-10-16 09:54:31","gazole_prix":1.81,"sp95_maj":"2023-10-16 09:54:31","sp95_prix":1.828,"e85_maj":null,"e85_prix":null,"gplc_maj":"2023-10-16 09:54:32","gplc_prix":0.917,"e10_maj":"2023-10-16 09:54:32","e10_prix":1.755,"sp98_maj":"2023-10-16 09:54:32","sp98_prix":1.811,"pop":"R"},{"lat":43.8769,"lon":4.9007,"brand":"Total","adresse":"RN 7 QUARTIER DU RABET, 13550 Noves","gazole_maj":"2023-10-13 20:57:45","gazole_prix":1.932,"sp95_maj":null,"sp95_prix":null,"e85_maj":"2023-09-13 19:26:16","e85_prix":1.019,"gplc_maj":null,"gplc_prix":null,"e10_maj":"2023-10-12 19:32:57","e10_prix":1.884,"sp98_maj":"2023-06-30 20:19:36","sp98_prix":1.986,"pop":"R"},{"lat":49.2689,"lon":-0.258,"brand":"Esso Express","adresse":"84 Route de Caen, 14150 Ouistreham","gazole_maj":"2023-10-14 05:31:00","gazole_prix":1.899,"sp95_maj":null,"sp95_prix":null,"e85_maj":null,"e85_prix":null,"gplc_maj":null,"gplc_prix":null,"e10_maj":"2023-10-14 05:31:00","e10_prix":1.889,"sp98_maj":"2023-10-14 05:31:00","sp98_prix":1.969,"pop":"R"},{"lat":50.715,"lon":2.543,"brand":"Leclerc","adresse":"Rue de l'Epeule, 59190 Hazebrouck","gazole_maj":"2023-10-16 14:11:16","gazole_prix":1.787,"sp95_maj":"2023-10-16 08:40:05","sp95_prix":1.768,"e85_maj":"2023-10-12 09:10:42","e85_prix":0.948,"gplc_maj":null,"gplc_prix":null,"e10_maj":"2023-10-16 08:40:05","e10_prix":1.716,"sp98_maj":"2023-10-12 09:10:42","sp98_prix":1.846,"pop":"R"},{"lat":45.6236,"lon":-1.0132,"brand":null,"adresse":"1, AV DE LA LIBERATION, 17200 Royan","gazole_maj":"2023-10-16 00:01:00","gazole_prix":1.864,"sp95_maj":null,"sp95_prix":null,"e85_maj":"2023-10-16 00:01:00","e85_prix":0.994,"gplc_maj":null,"gplc_prix":null,"e10_maj":"2023-10-16 00:01:00","e10_prix":1.814,"sp98_maj":"2023-10-16 00:01:00","sp98_prix":1.909,"pop":"R"},{"lat":45.6636,"lon":2.4522,"brand":null,"adresse":"12 Rue du Commerce, 19340 Eygurande","gazole_maj":null,"gazole_prix":null,"sp95_maj":null,"sp95_prix":null,"e85_maj":null,"e85_prix":null,"gplc_maj":null,"gplc_prix":null,"e10_maj":null,"e10_prix":null,"sp98_maj":null,"sp98_prix":null,"pop":"R"},{"lat":44.667,"lon":4.793,"brand":null,"adresse":"RN 7, 26740 Les Tourrettes","gazole_maj":"2023-10-16 00:01:00","gazole_prix":1.924,"sp95_maj":null,"sp95_prix":null,"e85_maj":null,"e85_prix":null,"gplc_maj":null,"gplc_prix":null,"e10_maj":"2023-10-16 00:01:00","e10_prix":1.912,"sp98_maj":"2023-10-16 00:01:00","sp98_prix":1.99,"pop":"R"},{"lat":42.6268,"lon":9.4286,"brand":"Esso","adresse":"Lot Arbuceta Rond Point Ceppe, 20620 Biguglia","gazole_maj":"2023-08-26 11:39:13","gazole_prix":1.98,"sp95_maj":"2023-08-26 11:38:32","sp95_prix":2.02,"e85_maj":null,"e85_prix":null,"gplc_maj":null,"gplc_prix":null,"e10_maj":null,"e10_prix":null,"sp98_maj":null,"sp98_prix":null,"pop":"R"},{"lat":47.342,"lon":5.045,"brand":"Esso Express","adresse":"2 Avenue de Langres, 21000 Dijon","gazole_maj":"2023-10-14 11:52:00","gazole_prix":1.881,"sp95_maj":null,"sp95_prix":null,"e85_maj":null,"e85_prix":null,"gplc_maj":null,"gplc_prix":null,"e10_maj":"2023-10-14 11:52:00","e10_prix":1.819,"sp98_maj":"2023-10-14 11:52:00","sp98_prix":1.899,"pop":"R"},{"lat":47.24,"lon":5.114,"brand":"Colruyt","adresse":"La plucharde ZAC de Breteni\u00e8re, 21110 Breteni\u00e8re","gazole_maj":"2023-10-16 15:25:04","gazole_prix":1.849,"sp95_maj":"2023-10-16 15:25:04","sp95_prix":1.849,"e85_maj":null,"e85_prix":null,"gplc_maj":null,"gplc_prix":null,"e10_maj":"2023-10-16 15:25:04","e10_prix":1.809,"sp98_maj":null,"sp98_prix":null,"pop":"R"},{"lat":44.544,"lon":4.747,"brand":"Esso Express","adresse":"RTE DE MARSEILLE, 26200 Mont\u00e9limar","gazole_maj":"2023-10-14 11:51:00","gazole_prix":1.859,"sp95_maj":null,"sp95_prix":null,"e85_maj":null,"e85_prix":null,"gplc_maj":null,"gplc_prix":null,"e10_maj":"2023-10-14 11:51:00","e10_prix":1.796,"sp98_maj":"2023-10-14 11:51:00","sp98_prix":1.876,"pop":"R"},{"lat":44.999,"lon":5.001,"brand":"Esso Express","adresse":"ROUTE NATIONALE 532, 26300 Alixan","gazole_maj":"2023-10-14 04:03:00","gazole_prix":1.863,"sp95_maj":null,"sp95_prix":null,"e85_maj":"2023-10-14 04:03:00","e85_prix":1.159,"gplc_maj":null,"gplc_prix":null,"e10_maj":"2023-10-14 04:03:00","e10_prix":1.806,"sp98_maj":"2023-10-14 04:03:00","sp98_prix":1.886,"pop":"R"},{"lat":43.5431,"lon":1.4159,"brand":"Esso Express","adresse":"50 Route d'Espagne, 31120 Portet-sur-Garonne","gazole_maj":"2023-10-14 04:02:00","gazole_prix":1.978,"sp95_maj":null,"sp95_prix":null,"e85_maj":null,"e85_prix":null,"gplc_maj":null,"gplc_prix":null,"e10_maj":"2023-10-14 04:02:00","e10_prix":1.914,"sp98_maj":null,"sp98_prix":null,"pop":"R"},{"lat":43.6848,"lon":1.2147,"brand":null,"adresse":"ROUTE DE GRENADE, 31530 Montaigut-sur-Save","gazole_maj":"2023-08-10 17:40:12","gazole_prix":1.99,"sp95_maj":"2023-02-28 11:38:36","sp95_prix":1.99,"e85_maj":null,"e85_prix":null,"gplc_maj":null,"gplc_prix":null,"e10_maj":null,"e10_prix":null,"sp98_maj":"2023-04-07 08:52:08","sp98_prix":1.99,"pop":"R"},{"lat":45.541,"lon":4.611,"brand":"Avia","adresse":"32 Route de Saint-Martin, 42800 Saint-Martin-la-Plaine","gazole_maj":"2023-10-16 07:28:25","gazole_prix":1.859,"sp95_maj":null,"sp95_prix":null,"e85_maj":null,"e85_prix":null,"gplc_maj":null,"gplc_prix":null,"e10_maj":null,"e10_prix":null,"sp98_maj":null,"sp98_prix":null,"pop":"R"},{"lat":43.268,"lon":5.415,"brand":null,"adresse":"171 BD PAUL CLAUDEL, 13010 Marseille","gazole_maj":"2023-10-16 00:01:00","gazole_prix":1.849,"sp95_maj":null,"sp95_prix":null,"e85_maj":null,"e85_prix":null,"gplc_maj":null,"gplc_prix":null,"e10_maj":null,"e10_prix":null,"sp98_maj":null,"sp98_prix":null,"pop":"R"},{"lat":43.923,"lon":5.908,"brand":"Intermarch\u00e9","adresse":"route La Brillanne, 4700 Oraison","gazole_maj":"2023-10-13 08:48:12","gazole_prix":1.849,"sp95_maj":null,"sp95_prix":null,"e85_maj":null,"e85_prix":null,"gplc_maj":null,"gplc_prix":null,"e10_maj":"2023-10-13 08:48:12","e10_prix":1.799,"sp98_maj":"2023-10-13 08:48:13","sp98_prix":1.879,"pop":"R"},{"lat":45.586,"lon":4.312,"brand":"Casino","adresse":"Richelande, 42330 Saint-Galmier","gazole_maj":"2023-10-13 07:06:04","gazole_prix":1.845,"sp95_maj":null,"sp95_prix":null,"e85_maj":null,"e85_prix":null,"gplc_maj":null,"gplc_prix":null,"e10_maj":"2023-10-16 08:12:34","e10_prix":1.825,"sp98_maj":"2023-10-16 08:12:34","sp98_prix":1.918,"pop":"R"},{"lat":48.7622,"lon":0.6507,"brand":"Leclerc","adresse":"Route de Paris, 61300 Saint-Sulpice-sur-Risle","gazole_maj":"2023-10-16 08:29:02","gazole_prix":1.791,"sp95_maj":null,"sp95_prix":null,"e85_maj":"2023-10-13 08:30:00","e85_prix":0.964,"gplc_maj":null,"gplc_prix":null,"e10_maj":"2023-10-16 08:29:02","e10_prix":1.735,"sp98_maj":"2023-10-16 08:29:02","sp98_prix":1.832,"pop":"R"},{"lat":45.244,"lon":1.415,"brand":"Total","adresse":"Route de Brive, 19130 Objat","gazole_maj":"2023-05-31 08:14:25","gazole_prix":1.635,"sp95_maj":null,"sp95_prix":null,"e85_maj":null,"e85_prix":null,"gplc_maj":null,"gplc_prix":null,"e10_maj":"2023-05-31 08:14:25","e10_prix":1.819,"sp98_maj":"2023-05-31 08:14:25","sp98_prix":1.909,"pop":"R"},{"lat":48.5233,"lon":5.8941,"brand":"Elan","adresse":"97 Rue Carnot, 54170 Colombey-les-Belles","gazole_maj":"2023-10-04 15:48:56","gazole_prix":1.99,"sp95_maj":"2023-10-04 15:49:28","sp95_prix":1.99,"e85_maj":null,"e85_prix":null,"gplc_maj":null,"gplc_prix":null,"e10_maj":null,"e10_prix":null,"sp98_maj":null,"sp98_prix":null,"pop":"R"},{"lat":49.11,"lon":6.171,"brand":"Esso Express","adresse":"8 Avenue Leclerc de Hauteclocque, 57000 Metz","gazole_maj":"2023-10-16 05:31:00","gazole_prix":1.897,"sp95_maj":null,"sp95_prix":null,"e85_maj":null,"e85_prix":null,"gplc_maj":null,"gplc_prix":null,"e10_maj":"2023-10-16 05:31:00","e10_prix":1.849,"sp98_maj":"2023-10-16 05:31:00","sp98_prix":1.929,"pop":"R"},{"lat":49.331,"lon":6.057,"brand":"Esso Express","adresse":"RUE DU MARECHAL FOCH, 57700 Hayange","gazole_maj":"2023-10-16 11:11:00","gazole_prix":1.959,"sp95_maj":null,"sp95_prix":null,"e85_maj":null,"e85_prix":null,"gplc_maj":null,"gplc_prix":null,"e10_maj":"2023-10-16 11:11:00","e10_prix":1.909,"sp98_maj":"2023-10-16 11:11:00","sp98_prix":1.989,"pop":"R"},{"lat":44.5414,"lon":4.2934,"brand":"Carrefour Contact","adresse":"LA CIGALIERE, 7110 Largenti\u00e8re","gazole_maj":"2023-10-16 13:15:41","gazole_prix":1.829,"sp95_maj":"2023-10-16 13:15:42","sp95_prix":1.859,"e85_maj":null,"e85_prix":null,"gplc_maj":null,"gplc_prix":null,"e10_maj":null,"e10_prix":null,"sp98_maj":"2023-10-16 13:15:42","sp98_prix":1.889,"pop":"R"},{"lat":48.165,"lon":7.5391,"brand":null,"adresse":"11 DE VENDEE, 67390 Marckolsheim","gazole_maj":null,"gazole_prix":null,"sp95_maj":null,"sp95_prix":null,"e85_maj":null,"e85_prix":null,"gplc_maj":null,"gplc_prix":null,"e10_maj":null,"e10_prix":null,"sp98_maj":null,"sp98_prix":null,"pop":"R"},{"lat":46.194,"lon":6.241,"brand":"Esso Express","adresse":"6 Route des Vall\u00e9es, 74100 Annemasse","gazole_maj":"2023-10-16 11:28:00","gazole_prix":1.879,"sp95_maj":null,"sp95_prix":null,"e85_maj":"2023-10-16 11:28:00","e85_prix":1.046,"gplc_maj":null,"gplc_prix":null,"e10_maj":"2023-10-16 11:28:00","e10_prix":1.859,"sp98_maj":"2023-10-16 11:28:00","sp98_prix":1.939,"pop":"R"},{"lat":44.4434,"lon":4.3481,"brand":"Syst\u00e8me U","adresse":"Route de Vallon Pont d'Arc, 7120 Ruoms","gazole_maj":"2023-10-14 08:16:56","gazole_prix":1.858,"sp95_maj":"2023-10-14 08:16:56","sp95_prix":1.835,"e85_maj":"2023-10-14 08:16:56","e85_prix":0.971,"gplc_maj":"2023-10-14 08:16:56","gplc_prix":1.02,"e10_maj":"2023-10-14 08:16:57","e10_prix":1.799,"sp98_maj":"2023-10-14 08:16:57","sp98_prix":1.874,"pop":"R"},{"lat":49.9624,"lon":1.6575,"brand":null,"adresse":"AUTOROUTE A 28, 80140 Le Translay","gazole_maj":"2023-10-14 00:00:00","gazole_prix":2.349,"sp95_maj":"2022-10-21 14:13:35","sp95_prix":2.199,"e85_maj":null,"e85_prix":null,"gplc_maj":"2023-05-23 12:50:00","gplc_prix":1.429,"e10_maj":"2023-10-14 00:00:00","e10_prix":2.299,"sp98_maj":"2023-10-14 00:00:00","sp98_prix":2.399,"pop":"A"},{"lat":43.1177,"lon":5.941,"brand":null,"adresse":"322 AV.LE BELLEGOU RODE, 83000 Toulon","gazole_maj":"2023-10-16 00:01:00","gazole_prix":1.866,"sp95_maj":null,"sp95_prix":null,"e85_maj":"2023-10-16 00:01:00","e85_prix":1.059,"gplc_maj":"2023-10-16 00:01:00","gplc_prix":0.969,"e10_maj":"2023-10-16 00:01:00","e10_prix":1.799,"sp98_maj":"2023-10-16 00:01:00","sp98_prix":1.899,"pop":"R"},{"lat":43.1395,"lon":5.8865,"brand":null,"adresse":"620 Rue David, 83200 Toulon","gazole_maj":"2023-10-15 20:45:00","gazole_prix":1.899,"sp95_maj":null,"sp95_prix":null,"e85_maj":null,"e85_prix":null,"gplc_maj":null,"gplc_prix":null,"e10_maj":"2023-10-15 20:45:00","e10_prix":1.899,"sp98_maj":"2023-10-15 20:45:00","sp98_prix":1.999,"pop":"R"},{"lat":44.026,"lon":4.873,"brand":"Esso Express","adresse":"ROUTE NATIONALE 7, 84700 Sorgues","gazole_maj":"2023-10-14 04:02:00","gazole_prix":1.891,"sp95_maj":null,"sp95_prix":null,"e85_maj":null,"e85_prix":null,"gplc_maj":null,"gplc_prix":null,"e10_maj":"2023-10-14 04:02:00","e10_prix":1.859,"sp98_maj":"2023-10-14 04:02:00","sp98_prix":1.939,"pop":"R"},{"lat":48.079,"lon":6.595,"brand":null,"adresse":"RN 57, 88200 Saint-Nabord","gazole_maj":"2023-10-16 06:00:00","gazole_prix":2.029,"sp95_maj":"2023-10-16 06:00:00","sp95_prix":2.089,"e85_maj":null,"e85_prix":null,"gplc_maj":null,"gplc_prix":null,"e10_maj":"2023-10-16 06:00:00","e10_prix":1.989,"sp98_maj":null,"sp98_prix":null,"pop":"R"},{"lat":47.8466,"lon":3.5754,"brand":null,"adresse":"Route d'Auxerre, 89470 Mon\u00e9teau","gazole_maj":null,"gazole_prix":null,"sp95_maj":null,"sp95_prix":null,"e85_maj":null,"e85_prix":null,"gplc_maj":null,"gplc_prix":null,"e10_maj":null,"e10_prix":null,"sp98_maj":null,"sp98_prix":null,"pop":"R"},{"lat":47.6686,"lon":6.8422,"brand":"Syst\u00e8me U","adresse":"30, rue de Turenne, 90300 Valdoie","gazole_maj":"2023-10-13 20:12:19","gazole_prix":1.853,"sp95_maj":"2023-10-13 20:12:19","sp95_prix":1.817,"e85_maj":null,"e85_prix":null,"gplc_maj":"2023-10-13 20:12:19","gplc_prix":0.953,"e10_maj":null,"e10_prix":null,"sp98_maj":"2023-10-13 20:12:19","sp98_prix":1.861,"pop":"R"},{"lat":45.414,"lon":3.725,"brand":"Syst\u00e8me U","adresse":"route de beurri\u00e9res, 63220 Arlanc","gazole_maj":"2023-10-07 19:00:00","gazole_prix":1.909,"sp95_maj":"2023-10-07 19:01:00","sp95_prix":1.909,"e85_maj":"2023-10-07 19:01:00","e85_prix":1.099,"gplc_maj":null,"gplc_prix":null,"e10_maj":null,"e10_prix":null,"sp98_maj":"2023-10-07 19:00:00","sp98_prix":1.949,"pop":"R"},{"lat":47.907,"lon":2.059,"brand":"Shell","adresse":"RD 2060, 45430 Mardi\u00e9","gazole_maj":"2023-10-16 13:00:00","gazole_prix":2.039,"sp95_maj":null,"sp95_prix":null,"e85_maj":null,"e85_prix":null,"gplc_maj":null,"gplc_prix":null,"e10_maj":"2023-10-16 13:00:00","e10_prix":2.007,"sp98_maj":"2023-10-16 13:00:00","sp98_prix":2.127,"pop":"R"},{"lat":50.517,"lon":3.208,"brand":null,"adresse":"A 23 sens Lille-Valenciennes Aire de Genech, 59242 Genech","gazole_maj":"2023-10-16 00:01:00","gazole_prix":1.982,"sp95_maj":null,"sp95_prix":null,"e85_maj":"2023-10-16 00:01:00","e85_prix":0.994,"gplc_maj":null,"gplc_prix":null,"e10_maj":"2023-10-16 00:01:00","e10_prix":1.914,"sp98_maj":"2023-10-16 00:01:00","sp98_prix":1.99,"pop":"A"},{"lat":43.655,"lon":0.566,"brand":"Avia","adresse":"203 Rue Victor Hugo, 32000 Auch","gazole_maj":"2023-10-13 17:10:10","gazole_prix":1.97,"sp95_maj":null,"sp95_prix":null,"e85_maj":"2023-10-13 17:10:10","e85_prix":1.18,"gplc_maj":null,"gplc_prix":null,"e10_maj":"2023-10-13 17:10:10","e10_prix":1.94,"sp98_maj":null,"sp98_prix":null,"pop":"R"},{"lat":45.284,"lon":1.6583,"brand":"Carrefour Contact","adresse":"Lieu-dit La Chapelle, 19330 Saint-Mexant","gazole_maj":"2023-10-13 07:32:27","gazole_prix":1.869,"sp95_maj":null,"sp95_prix":null,"e85_maj":null,"e85_prix":null,"gplc_maj":null,"gplc_prix":null,"e10_maj":"2023-10-13 07:32:28","e10_prix":1.839,"sp98_maj":"2023-10-13 07:32:28","sp98_prix":1.919,"pop":"R"},{"lat":45.4374,"lon":4.411,"brand":null,"adresse":"50 BD NORMANDIE NIEMEN, 42000 Saint-\u00c9tienne","gazole_maj":"2023-10-16 10:24:17","gazole_prix":1.859,"sp95_maj":null,"sp95_prix":null,"e85_maj":"2023-07-10 12:49:02","e85_prix":1.139,"gplc_maj":null,"gplc_prix":null,"e10_maj":"2023-10-14 10:50:52","e10_prix":1.809,"sp98_maj":null,"sp98_prix":null,"pop":"R"},{"lat":43.2869,"lon":5.3997,"brand":null,"adresse":"34,BD JEAN MOULIN, 13005 Marseille","gazole_maj":"2023-10-16 00:01:00","gazole_prix":1.954,"sp95_maj":null,"sp95_prix":null,"e85_maj":"2023-10-16 00:01:00","e85_prix":0.994,"gplc_maj":null,"gplc_prix":null,"e10_maj":"2023-10-16 00:01:00","e10_prix":1.914,"sp98_maj":"2023-10-16 00:01:00","sp98_prix":1.99,"pop":"R"},