[{"lat":42.575,"lon":3.035,"brand":null,"adresse":"5 ROUTE DU LITTORAL, 66700 Argel\u00e8s-sur-Mer","gazole_maj":"2024-03-01T08:24:59+01:00","gazole_prix":1.849,"sp95_maj":null,"sp95_prix":null,"e85_maj":"2024-01-05T08:26:55+01:00","e85_prix":0.919,"gplc_maj":null,"gplc_prix":null,"e10_maj":"2024-02-27T08:24:49+01:00","e10_prix":1.909,"sp98_maj":null,"sp98_prix":null,"pop":"R"},{"lat":47.676,"lon":-3.197,"brand":"Total","adresse":"97 route de PONT LOROIS, 56550 Belz","gazole_maj":"2024-03-01T07:14:02+01:00","gazole_prix":1.845,"sp95_maj":null,"sp95_prix":null,"e85_maj":null,"e85_prix":null,"gplc_maj":null,"gplc_prix":null,"e10_maj":"2024-03-01T07:14:02+01:00","e10_prix":1.883,"sp98_maj":"2024-03-01T07:14:03+01:00","sp98_prix":1.99,"pop":"R"},{"lat":45.813,"lon":4.888,"brand":null,"adresse":"1880 route de strasbourg, 69140 Rillieux-la-Pape","gazole_maj":"2024-01-29T07:06:48+01:00","gazole_prix":1.849,"sp95_maj":null,"sp95_prix":null,"e85_maj":null,"e85_prix":null,"gplc_maj":null,"gplc_prix":null,"e10_maj":null,"e10_prix":null,"sp98_maj":null,"sp98_prix":null,"pop":"R"},{"lat":45.82,"lon":3.15,"brand":"Intermarch\u00e9","adresse":"Rue des Martyrs, 63360 Gerzat","gazole_maj":"2024-02-28T10:40:43+01:00","gazole_prix":1.779,"sp95_maj":null,"sp95_prix":null,"e85_maj":null,"e85_prix":null,"gplc_maj":null,"gplc_prix":null,"e10_maj":"2024-02-14T06:34:17+01:00","e10_prix":1.829,"sp98_maj":"2024-02-14T06:34:17+01:00","sp98_prix":1.899,"pop":"R"},{"lat":44.736,"lon":-0.268,"brand":"Carrefour Contact","adresse":"Route de Bordeaux, 33760 Targon","gazole_maj":"2024-02-26T09:10:09+01:00","gazole_prix":1.799,"sp95_maj":"2024-02-25T11:00:38+01:00","sp95_prix":1.845,"e85_maj":null,"e85_prix":null,"gplc_maj":null,"gplc_prix":null,"e10_maj":null,"e10_prix":null,"sp98_maj":"2024-02-25T11:00:38+01:00","sp98_prix":1.889,"pop":"R"},{"lat":50.626,"lon":2.773,"brand":"Shopi","adresse":"57 Rue Robert Parfait, 62840 Laventie","gazole_maj":"2024-02-16T09:02:46+01:00","gazole_prix":1.819,"sp95_maj":"2024-02-05T12:55:47+01:00","sp95_prix":1.869,"e85_maj":"2024-01-12T08:18:49+01:00","e85_prix":0.999,"gplc_maj":null,"gplc_prix":null,"e10_maj":null,"e10_prix":null,"sp98_maj":null,"sp98_prix":null,"pop":"R"},{"lat":48.955,"lon":4.332,"brand":"Esso Express","adresse":"ROUTE D'EPERNAY, 51000 Ch\u00e2lons-en-Champagne","gazole_maj":"2024-02-27T08:01:00+01:00","gazole_prix":1.791,"sp95_maj":null,"sp95_prix":null,"e85_maj":null,"e85_prix":null,"gplc_maj":null,"gplc_prix":null,"e10_maj":"2024-02-27T08:01:00+01:00","e10_prix":1.821,"sp98_maj":"2024-02-27T08:01:00+01:00","sp98_prix":1.901,"pop":"R"},{"lat":44.914,"lon":0.925,"brand":"Intermarch\u00e9","adresse":"AVENUE DE LA LIBERATION, 24260 Le Bugue","gazole_maj":"2024-02-20T09:30:03+01:00","gazole_prix":1.819,"sp95_maj":null,"sp95_prix":null,"e85_maj":null,"e85_prix":null,"gplc_maj":null,"gplc_prix":null,"e10_maj":"2024-02-20T09:30:03+01:00","e10_prix":1.829,"sp98_maj":"2024-02-17T20:37:22+01:00","sp98_prix":1.919,"pop":"R"},{"lat":48.644,"lon":6.806,"brand":"Total","adresse":"11 GRANDE RUE, 54450 Avricourt","gazole_maj":"2024-02-29T07:58:53+01:00","gazole_prix":1.87,"sp95_maj":"2024-02-22T07:57:01+01:00","sp95_prix":1.94,"e85_maj":null,"e85_prix":null,"gplc_maj":null,"gplc_prix":null,"e10_maj":null,"e10_prix":null,"sp98_maj":null,"sp98_prix":null,"pop":"R"},{"lat":43.6176,"lon":5.3078,"brand":null,"adresse":"Espace Daumas, 13760 Saint-Cannat","gazole_maj":"2024-03-01T08:16:08+01:00","gazole_prix":1.748,"sp95_maj":null,"sp95_prix":null,"e85_maj":"2024-02-28T08:22:40+01:00","e85_prix":0.849,"gplc_maj":null,"gplc_prix":null,"e10_maj":"2024-03-01T08:16:08+01:00","e10_prix":1.813,"sp98_maj":"2024-03-01T08:16:09+01:00","sp98_prix":1.9,"pop":"R"},{"lat":50.1286,"lon":3.9369,"brand":"Esso Express","adresse":"39 AVENUE STROH, 59440 Avesnes-sur-Helpe","gazole_maj":"2024-02-15T12:06:00+01:00","gazole_prix":1.848,"sp95_maj":null,"sp95_prix":null,"e85_maj":null,"e85_prix":null,"gplc_maj":null,"gplc_prix":null,"e10_maj":"2024-02-15T12:06:00+01:00","e10_prix":1.81,"sp98_maj":"2024-02-15T12:06:00+01:00","sp98_prix":1.89,"pop":"R"},{"lat":49.1076,"lon":-1.1338,"brand":"Leclerc","adresse":"rue de l'oratoire, parc de l'odyss\u00e9e, 50180 Agneaux","gazole_maj":"2024-02-22T10:27:42+01:00","gazole_prix":1.789,"sp95_maj":null,"sp95_prix":null,"e85_maj":"2024-02-22T10:27:42+01:00","e85_prix":0.839,"gplc_maj":null,"gplc_prix":null,"e10_maj":"2024-02-22T10:27:42+01:00","e10_prix":1.799,"sp98_maj":"2024-02-22T10:27:42+01:00","sp98_prix":1.879,"pop":"R"},{"lat":47.6151,"lon":-0.4641,"brand":"Syst\u00e8me U","adresse":"6 PLACE DE COUBERTIN, 49125 Tierc\u00e9","gazole_maj":"2024-02-27T09:40:59+01:00","gazole_prix":1.759,"sp95_maj":null,"sp95_prix":null,"e85_maj":"2024-02-20T09:36:31+01:00","e85_prix":0.859,"gplc_maj":null,"gplc_prix":null,"e10_maj":"2024-02-27T09:23:07+01:00","e10_prix":1.769,"sp98_maj":"2024-02-17T08:47:30+01:00","sp98_prix":1.857,"pop":"R"},{"lat":43.399,"lon":5.041,"brand":null,"adresse":"ROUTE DE LAVERA, 13500 Martigues","gazole_maj":"2024-03-01T01:01:00+01:00","gazole_prix":1.871,"sp95_maj":null,"sp95_prix":null,"e85_maj":null,"e85_prix":null,"gplc_maj":null,"gplc_prix":null,"e10_maj":"2024-03-01T01:01:00+01:00","e10_prix":1.913,"sp98_maj":"2024-03-01T01:01:00+01:00","sp98_prix":1.99,"pop":"R"},{"lat":48.518,"lon":2.628,"brand":null,"adresse":"AVENUE DES LYS, 77190 Dammarie-les-Lys","gazole_maj":"2024-03-01T01:01:00+01:00","gazole_prix":1.805,"sp95_maj":null,"sp95_prix":null,"e85_maj":null,"e85_prix":null,"gplc_maj":null,"gplc_prix":null,"e10_maj":"2024-03-01T01:01:00+01:00","e10_prix":1.816,"sp98_maj":"2024-03-01T01:01:00+01:00","sp98_prix":1.907,"pop":"R"},{"lat":47.342,"lon":1.178,"brand":"Esso Express","adresse":"60 Route de Tours, 41400 Montrichard Val de Cher","gazole_maj":"2024-02-28T14:05:00+01:00","gazole_prix":1.779,"sp95_maj":null,"sp95_prix":null,"e85_maj":null,"e85_prix":null,"gplc_maj":null,"gplc_prix":null,"e10_maj":"2024-02-29T13:45:00+01:00","e10_prix":1.819,"sp98_maj":"2024-02-29T13:45:00+01:00","sp98_prix":1.919,"pop":"R"},{"lat":48.906,"lon":2.481,"brand":"Esso Express","adresse":"108 Avenue Gallieni, 93140 Bondy","gazole_maj":"2024-03-01T08:01:00+01:00","gazole_prix":1.874,"sp95_maj":null,"sp95_prix":null,"e85_maj":null,"e85_prix":null,"gplc_maj":null,"gplc_prix":null,"e10_maj":"2024-03-01T08:01:00+01:00","e10_prix":1.881,"sp98_maj":"2024-03-01T08:01:00+01:00","sp98_prix":1.961,"pop":"R"},{"lat":45.836,"lon":3.095,"brand":"Simply Market","adresse":"Route de Ch\u00e2teaugay, 63118 C\u00e9bazat","gazole_maj":"2024-03-01T08:29:41+01:00","gazole_prix":1.767,"sp95_maj":null,"sp95_prix":null,"e85_maj":null,"e85_prix":null,"gplc_maj":null,"gplc_prix":null,"e10_maj":"2024-03-01T08:29:41+01:00","e10_prix":1.82,"sp98_maj":"2024-03-01T08:29:41+01:00","sp98_prix":1.918,"pop":"R"},{"lat":48.96,"lon":2.304,"brand":"Esso Express","adresse":"86 Avenue de Lattre de Tassigny, 93800 \u00c9pinay-sur-Seine","gazole_maj":"2024-03-01T08:01:00+01:00","gazole_prix":1.828,"sp95_maj":null,"sp95_prix":null,"e85_maj":null,"e85_prix":null,"gplc_maj":null,"gplc_prix":null,"e10_maj":"2024-03-01T08:01:00+01:00","e10_prix":1.851,"sp98_maj":"2024-03-01T08:01:00+01:00","sp98_prix":1.931,"pop":"R"},{"lat":43.449,"lon":3.753,"brand":"Ind\u00e9pendant sans enseigne","adresse":"Route de S\u00e8te, 34110 Frontignan","gazole_maj":"2024-01-25T01:01:00+01:00","gazole_prix":1.789,"sp95_maj":"2024-01-24T16:38:26+01:00","sp95_prix":1.859,"e85_maj":null,"e85_prix":null,"gplc_maj":null,"gplc_prix":null,"e10_maj":null,"e10_prix":null,"sp98_maj":"2023-09-19T18:03:28+02:00","sp98_prix":2.099,"pop":"R"},{"lat":48.496,"lon":4.945,"brand":"Intermarch\u00e9","adresse":"Rue du G\u00e9n\u00e9ral Leclerc, 52130 Wassy","gazole_maj":"2024-02-21T12:30:28+01:00","gazole_prix":1.828,"sp95_maj":null,"sp95_prix":null,"e85_maj":null,"e85_prix":null,"gplc_maj":null,"gplc_prix":null,"e10_maj":"2024-02-21T12:30:29+01:00","e10_prix":1.838,"sp98_maj":"2024-02-21T12:30:29+01:00","sp98_prix":1.908,"pop":"R"},{"lat":49.91,"lon":1.077,"brand":"Auchan","adresse":"Centre Commercial Le Belv\u00e9d\u00e8re, 76371 Dieppe","gazole_maj":"2024-02-27T08:11:00+01:00","gazole_prix":1.769,"sp95_maj":null,"sp95_prix":null,"e85_maj":"2024-01-24T08:47:37+01:00","e85_prix":0.898,"gplc_maj":null,"gplc_prix":null,"e10_maj":"2024-02-27T08:11:00+01:00","e10_prix":1.782,"sp98_maj":"2024-02-27T08:11:00+01:00","sp98_prix":1.875,"pop":"R"},{"lat":48.5149,"lon":-4.0538,"brand":null,"adresse":"137 Avenue Mar\u00e9chal Foch, 29400 Landivisiau","gazole_maj":"2024-03-01T06:52:00+01:00","gazole_prix":1.746,"sp95_maj":null,"sp95_prix":null,"e85_maj":null,"e85_prix":null,"gplc_maj":null,"gplc_prix":null,"e10_maj":"2024-03-01T06:52:00+01:00","e10_prix":1.725,"sp98_maj":"2024-03-01T06:52:00+01:00","sp98_prix":1.805,"pop":"R"},{"lat":48.3313,"lon":0.8052,"brand":"Intermarch\u00e9","adresse":"Rue de la Bruy\u00e8re, centre commercial du Percue, 28400 Nogent-le-Rotrou","gazole_maj":"2024-02-27T10:22:40+01:00","gazole_prix":1.759,"sp95_maj":null,"sp95_prix":null,"e85_maj":"2024-02-27T10:22:40+01:00","e85_prix":0.848,"gplc_maj":"2023-10-02T19:38:40+02:00","gplc_prix":0.928,"e10_maj":"2024-02-27T10:22:40+01:00","e10_prix":1.798,"sp98_maj":"2024-02-27T10:22:41+01:00","sp98_prix":1.872,"pop":"R"},{"lat":45.849,"lon":3.537,"brand":"Leclerc","adresse":"Avenue L\u00e9o Lagrange, 63300 Thiers","gazole_maj":"2024-02-26T18:39:07+01:00","gazole_prix":1.793,"sp95_maj":null,"sp95_prix":null,"e85_maj":null,"e85_prix":null,"gplc_maj":null,"gplc_prix":null,"e10_maj":"2024-02-23T09:25:16+01:00","e10_prix":1.819,"sp98_maj":"2024-02-24T09:33:19+01:00","sp98_prix":1.909,"pop":"R"},{"lat":45.5564,"lon":2.3152,"brand":null,"adresse":"8 AVENUE PIERRE SEMARD, 19200 Ussel","gazole_maj":"2024-02-29T09:45:41+01:00","gazole_prix":1.775,"sp95_maj":null,"sp95_prix":null,"e85_maj":null,"e85_prix":null,"gplc_maj":null,"gplc_prix":null,"e10_maj":"2024-02-29T09:45:42+01:00","e10_prix":1.799,"sp98_maj":"2024-02-16T09:17:48+01:00","sp98_prix":1.879,"pop":"R"},{"lat":48.5873,"lon":1.5731,"brand":"Carrefour Market","adresse":"RUE DU MOULIN, 28130 Maintenon","gazole_maj":"2024-02-26T10:25:13+01:00","gazole_prix":1.805,"sp95_maj":null,"sp95_prix":null,"e85_maj":"2024-02-26T10:25:13+01:00","e85_prix":0.999,"gplc_maj":null,"gplc_prix":null,"e10_maj":"2024-02-26T10:25:13+01:00","e10_prix":1.835,"sp98_maj":"2024-02-26T10:25:13+01:00","sp98_prix":1.929,"pop":"R"},{"lat":46.353,"lon":2.587,"brand":"Leclerc","adresse":"Avenue Pierre Villon, 3100 Montlu\u00e7on","gazole_maj":"2024-02-28T09:16:32+01:00","gazole_prix":1.799,"sp95_maj":"2024-02-28T09:16:32+01:00","sp95_prix":1.849,"e85_maj":null,"e85_prix":null,"gplc_maj":null,"gplc_prix":null,"e10_maj":null,"e10_prix":null,"sp98_maj":"2024-02-28T09:16:32+01:00","sp98_prix":1.889,"pop":"R"},{"lat":44.4,"lon":0.299,"brand":"Leclerc","adresse":"Avenue Pierre Mendes France, 47400 Tonneins","gazole_maj":"2024-02-23T10:22:38+01:00","gazole_prix":1.772,"sp95_maj":"2024-02-23T10:22:38+01:00","sp95_prix":1.813,"e85_maj":"2024-02-23T10:22:38+01:00","e85_prix":0.847,"gplc_maj":"2023-11-22T20:46:06+01:00","gplc_prix":0.999,"e10_maj":"2024-02-23T10:22:38+01:00","e10_prix":1.776,"sp98_maj":"2024-02-23T10:22:38+01:00","sp98_prix":1.847,"pop":"R"},{"lat":43.617,"lon":6.22,"brand":"Intermarch\u00e9","adresse":"Route de Sillans, 83630 Aups","gazole_maj":"2024-02-29T09:15:48+01:00","gazole_prix":1.819,"sp95_maj":"2024-02-29T09:15:49+01:00","sp95_prix":1.889,"e85_maj":"2024-02-29T09:15:49+01:00","e85_prix":0.848,"gplc_maj":null,"gplc_prix":null,"e10_maj":null,"e10_prix":null,"sp98_maj":"2024-02-29T09:15:49+01:00","sp98_prix":1.939,"pop":"R"},{"lat":49.7505,"lon":2.3591,"brand":"Intermarch\u00e9","adresse":"Rue Sadi Carnot, 80250 Ailly-sur-Noye","gazole_maj":"2024-02-21T10:28:45+01:00","gazole_prix":1.783,"sp95_maj":null,"sp95_prix":null,"e85_maj":"2024-02-16T15:35:21+01:00","e85_prix":0.848,"gplc_maj":null,"gplc_prix":null,"e10_maj":"2024-02-21T10:28:45+01:00","e10_prix":1.789,"sp98_maj":"2024-02-19T10:58:21+01:00","sp98_prix":1.869,"pop":"R"},{"lat":43.825,"lon":4.379,"brand":null,"adresse":"390 AV PIERRE MENDES FRANCE, 30000 N\u00eemes","gazole_maj":"2024-03-01T01:01:00+01:00","gazole_prix":1.761,"sp95_maj":null,"sp95_prix":null,"e85_maj":"2024-03-01T01:01:00+01:00","e85_prix":0.899,"gplc_maj":null,"gplc_prix":null,"e10_maj":"2024-03-01T01:01:00+01:00","e10_prix":1.81,"sp98_maj":"2024-03-01T01:01:00+01:00","sp98_prix":1.9,"pop":"R"},{"lat":48.5849,"lon":-1.3264,"brand":null,"adresse":"AUTOROUTE A84 - AIRE DU MONT SAINT MICHEL, 50240 Saint-Aubin-de-Terregatte","gazole_maj":"2024-02-29T10:00:00+01:00","gazole_prix":1.99,"sp95_maj":null,"sp95_prix":null,"e85_maj":"2024-02-29T10:00:00+01:00","e85_prix":0.999,"gplc_maj":"2024-02-29T10:00:00+01:00","gplc_prix":1.064,"e10_maj":"2024-02-29T10:00:00+01:00","e10_prix":1.99,"sp98_maj":"2024-02-29T10:00:00+01:00","sp98_prix":1.99,"pop":"A"},{"lat":47.3294,"lon":-2.4112,"brand":"Leclerc","adresse":"Rue de Villejames, 44350 Gu\u00e9rande","gazole_maj":"2024-02-27T09:43:25+01:00","gazole_prix":1.758,"sp95_maj":null,"sp95_prix":null,"e85_maj":null,"e85_prix":null,"gplc_maj":"2024-01-08T11:28:11+01:00","gplc_prix":0.979,"e10_maj":"2024-02-27T09:43:25+01:00","e10_prix":1.751,"sp98_maj":"2024-02-27T09:43:26+01:00","sp98_prix":1.833,"pop":"R"},{"lat":46.267,"lon":5.655,"brand":null,"adresse":"32 COURS DE VERDUN, 1100 Oyonnax","gazole_maj":"2024-02-28T10:22:11+01:00","gazole_prix":1.77,"sp95_maj":null,"sp95_prix":null,"e85_maj":"2024-02-28T10:22:11+01:00","e85_prix":0.848,"gplc_maj":null,"gplc_prix":null,"e10_maj":"2024-02-28T10:22:11+01:00","e10_prix":1.826,"sp98_maj":"2024-02-28T10:22:11+01:00","sp98_prix":1.929,"pop":"R"},{"lat":45.626,"lon":5.54,"brand":null,"adresse":"Route des Avenieres, 38630 Les Aveni\u00e8res Veyrins-Thuellin","gazole_maj":"2024-02-29T16:18:49+01:00","gazole_prix":1.759,"sp95_maj":"2024-02-29T16:18:49+01:00","sp95_prix":1.829,"e85_maj":null,"e85_prix":null,"gplc_maj":null,"gplc_prix":null,"e10_maj":"2024-02-29T16:18:49+01:00","e10_prix":1.799,"sp98_maj":null,"sp98_prix":null,"pop":"R"},{"lat":45.1094,"lon":3.492,"brand":null,"adresse":"56 AVENUE D'AUVERGNE, 43300 Langeac","gazole_maj":"2024-02-29T12:38:01+01:00","gazole_prix":1.829,"sp95_maj":null,"sp95_prix":null,"e85_maj":null,"e85_prix":null,"gplc_maj":null,"gplc_prix":null,"e10_maj":"2024-02-29T12:38:01+01:00","e10_prix":1.859,"sp98_maj":"2024-02-29T12:38:01+01:00","sp98_prix":1.915,"pop":"R"},{"lat":50.462,"lon":2.827,"brand":"CORA","adresse":"Route de La Bass\u00e9e, 62880 Vendin-le-Vieil","gazole_maj":"2024-02-27T01:00:00+01:00","gazole_prix":1.815,"sp95_maj":null,"sp95_prix":null,"e85_maj":"2024-02-09T17:26:31+01:00","e85_prix":0.858,"gplc_maj":"2024-02-06T08:51:19+01:00","gplc_prix":0.96,"e10_maj":"2024-02-27T01:00:00+01:00","e10_prix":1.815,"sp98_maj":null,"sp98_prix":null,"pop":"R"},{"lat":44.033,"lon":1.375,"brand":"Leclerc","adresse":"445 Route du Nord - ZI AUSSONNE, 82000 Montauban","gazole_maj":"2024-03-01T02:17:00+01:00","gazole_prix":1.777,"sp95_maj":null,"sp95_prix":null,"e85_maj":"2024-03-01T02:17:00+01:00","e85_prix":0.852,"gplc_maj":"2024-03-01T02:17:00+01:00","gplc_prix":0.959,"e10_maj":"2024-03-01T02:17:00+01:00","e10_prix":1.779,"sp98_maj":"2024-03-01T02:17:00+01:00","sp98_prix":1.879,"pop":"R"},{"lat":48.8186,"lon":2.1195,"brand":"Ind\u00e9pendant sans enseigne","adresse":"52 bld st antoine, 78150 Versailles","gazole_maj":"2024-02-22T10:46:17+01:00","gazole_prix":1.869,"sp95_maj":"2024-02-22T10:46:18+01:00","sp95_prix":1.899,"e85_maj":null,"e85_prix":null,"gplc_maj":null,"gplc_prix":null,"e10_maj":"2024-02-22T10:46:18+01:00","e10_prix":1.859,"sp98_maj":null,"sp98_prix":null,"pop":"R"},{"lat":44.552,"lon":6.256,"brand":null,"adresse":"RN 94 LA GRANDE ILE, 5230 Chorges","gazole_maj":"2024-03-01T01:01:00+01:00","gazole_prix":1.785,"sp95_maj":null,"sp95_prix":null,"e85_maj":"2024-03-01T01:01:00+01:00","e85_prix":0.899,"gplc_maj":null,"gplc_prix":null,"e10_maj":"2024-03-01T01:01:00+01:00","e10_prix":1.83,"sp98_maj":"2024-03-01T01:01:00+01:00","sp98_prix":1.915,"pop":"R"},{"lat":47.835,"lon":2.84,"brand":"Syst\u00e8me U","adresse":"Route de Montargis, 45230 Ch\u00e2tillon-Coligny","gazole_maj":"2024-02-29T10:00:00+01:00","gazole_prix":1.752,"sp95_maj":null,"sp95_prix":null,"e85_maj":"2024-02-09T10:00:00+01:00","e85_prix":0.849,"gplc_maj":null,"gplc_prix":null,"e10_maj":"2024-02-29T10:00:00+01:00","e10_prix":1.789,"sp98_maj":"2024-02-28T10:00:14+01:00","sp98_prix":1.913,"pop":"R"},{"lat":49.1306,"lon":6.1575,"brand":"Supermarch\u00e9 Match","adresse":"36 Route de Lorry, 57050 Metz","gazole_maj":"2024-02-27T00:50:00+01:00","gazole_prix":1.842,"sp95_maj":"2024-02-27T00:50:00+01:00","sp95_prix":1.887,"e85_maj":null,"e85_prix":null,"gplc_maj":null,"gplc_prix":null,"e10_maj":null,"e10_prix":null,"sp98_maj":"2024-02-27T00:50:00+01:00","sp98_prix":1.919,"pop":"R"},{"lat":44.9122,"lon":-0.3912,"brand":"Syst\u00e8me U","adresse":"17 PLACE MAUCAILLOU, 33450 Saint-Sulpice-et-Cameyrac","gazole_maj":"2024-02-27T10:23:11+01:00","gazole_prix":1.768,"sp95_maj":"2024-02-08T11:48:34+01:00","sp95_prix":1.818,"e85_maj":null,"e85_prix":null,"gplc_maj":null,"gplc_prix":null,"e10_maj":null,"e10_prix":null,"sp98_maj":"2024-02-12T12:50:05+01:00","sp98_prix":1.858,"pop":"R"},{"lat":49.047,"lon":7.284,"brand":"Syst\u00e8me U","adresse":"Route de Strasbourg, 57410 Rohrbach-l\u00e8s-Bitche","gazole_maj":"2024-02-27T11:00:07+01:00","gazole_prix":1.799,"sp95_maj":"2024-02-27T11:00:07+01:00","sp95_prix":1.859,"e85_maj":"2024-02-15T09:00:30+01:00","e85_prix":0.849,"gplc_maj":null,"gplc_prix":null,"e10_maj":"2024-02-21T13:24:01+01:00","e10_prix":1.809,"sp98_maj":"2024-02-17T13:13:42+01:00","sp98_prix":1.859,"pop":"R"},{"lat":49.167,"lon":1.337,"brand":"Intermarch\u00e9","adresse":"19, Rue Charles de Gaulle - Aubevoye, 27940 Le Val d'Hazey","gazole_maj":"2024-02-28T11:13:51+01:00","gazole_prix":1.779,"sp95_maj":null,"sp95_prix":null,"e85_maj":"2024-02-28T11:13:51+01:00","e85_prix":0.848,"gplc_maj":null,"gplc_prix":null,"e10_maj":"2024-02-28T11:13:52+01:00","e10_prix":1.789,"sp98_maj":"2024-02-28T11:13:52+01:00","sp98_prix":1.87,"pop":"R"},{"lat":47.5425,"lon":-1.8827,"brand":null,"adresse":"11 bis rue charles perron, 44630 Pless\u00e9","gazole_maj":"2024-02-19T10:42:54+01:00","gazole_prix":1.789,"sp95_maj":"2024-02-19T10:42:54+01:00","sp95_prix":1.829,"e85_maj":null,"e85_prix":null,"gplc_maj":null,"gplc_prix":null,"e10_maj":null,"e10_prix":null,"sp98_maj":"2024-02-19T10:42:55+01:00","sp98_prix":1.876,"pop":"R"},{"lat":44.1323,"lon":4.0741,"brand":null,"adresse":"QUAI BILINA, 30100 Al\u00e8s","gazole_maj":"2024-02-28T09:14:08+01:00","gazole_prix":1.738,"sp95_maj":null,"sp95_prix":null,"e85_maj":"2024-02-22T09:54:03+01:00","e85_prix":0.919,"gplc_maj":null,"gplc_prix":null,"e10_maj":"2024-02-29T09:46:08+01:00","e10_prix":1.769,"sp98_maj":"2024-02-29T09:46:08+01:00","sp98_prix":1.859,"pop":"R"},{"lat":43.483,"lon":1.548,"brand":null,"adresse":"AUTOROUTE A61AIRE DE TOULOUSE SUD NORD, 31450 Deyme","gazole_maj":"2024-02-29T15:00:00+01:00","gazole_prix":1.955,"sp95_maj":null,"sp95_prix":null,"e85_maj":"2024-02-29T15:00:00+01:00","e85_prix":1.02,"gplc_maj":"2024-02-29T15:00:00+01:00","gplc_prix":1.083,"e10_maj":"2024-02-29T15:00:00+01:00","e10_prix":1.972,"sp98_maj":"2024-02-29T15:00:00+01:00","sp98_prix":2.06,"pop":"A"},{"lat":45.396,"lon":1.209,"brand":null,"adresse":"57 rue d'Aquitaine, 24270 Savignac-L\u00e9drier","gazole_maj":"2024-02-22T11:46:52+01:00","gazole_prix":1.839,"sp95_maj":"2024-02-10T11:21:42+01:00","sp95_prix":1.859,"e85_maj":null,"e85_prix":null,"gplc_maj":null,"gplc_prix":null,"e10_maj":null,"e10_prix":null,"sp98_maj":"2024-02-10T11:21:43+01:00","sp98_prix":1.889,"pop":"R"},{"lat":44.624,"lon":0.741,"brand":"Ind\u00e9pendant sans enseigne","adresse":"Au Caillou, 47210 Viller\u00e9al","gazole_maj":"2024-02-27T10:49:59+01:00","gazole_prix":1.83,"sp95_maj":null,"sp95_prix":null,"e85_maj":null,"e85_prix":null,"gplc_maj":null,"gplc_prix":null,"e10_maj":"2024-02-29T11:52:07+01:00","e10_prix":1.86,"sp98_maj":null,"sp98_prix":null,"pop":"R"},{"lat":46.604,"lon":1.508,"brand":"Intermarch\u00e9","adresse":"Route de Saint-Marin, 36200 Saint-Marcel","gazole_maj":null,"gazole_prix":null,"sp95_maj":null,"sp95_prix":null,"e85_maj":null,"e85_prix":null,"gplc_maj":null,"gplc_prix":null,"e10_maj":null,"e10_prix":null,"sp98_maj":null,"sp98_prix":null,"pop":"R"},{"lat":43.5483,"lon":2.2734,"brand":"Intermarch\u00e9","adresse":"Route de l'A\u00e9roport, 81290 Labrugui\u00e8re","gazole_maj":"2024-02-28T09:35:38+01:00","gazole_prix":1.775,"sp95_maj":"2024-02-28T09:35:38+01:00","sp95_prix":1.855,"e85_maj":"2023-12-30T20:01:13+01:00","e85_prix":0.849,"gplc_maj":null,"gplc_prix":null,"e10_maj":"2024-02-15T12:26:43+01:00","e10_prix":1.795,"sp98_maj":null,"sp98_prix":null,"pop":"R"},{"lat":47.111,"lon":1.005,"brand":"Leclerc","adresse":"La Cloutiere    PERRUSSON, 37600 Perrusson","gazole_maj":"2024-02-28T10:31:14+01:00","gazole_prix":1.775,"sp95_maj":"2024-02-28T10:31:14+01:00","sp95_prix":1.829,"e85_maj":null,"e85_prix":null,"gplc_maj":null,"gplc_prix":null,"e10_maj":"2024-02-28T10:31:15+01:00","e10_prix":1.789,"sp98_maj":"2024-02-27T10:59:33+01:00","sp98_prix":1.855,"pop":"R"},{"lat":43.488,"lon":0.936,"brand":"Total","adresse":"ROUTE DE TOULOUSE, 32130 Samatan","gazole_maj":"2024-02-29T20:38:49+01:00","gazole_prix":1.885,"sp95_maj":null,"sp95_prix":null,"e85_maj":null,"e85_prix":null,"gplc_maj":null,"gplc_prix":null,"e10_maj":"2024-02-26T20:39:21+01:00","e10_prix":1.941,"sp98_maj":"2024-01-23T20:27:03+01:00","sp98_prix":1.99,"pop":"R"},{"lat":48.824,"lon":2.128,"brand":"BP","adresse":"100 Rue de Versailles, 78150 Le Chesnay-Rocquencourt","gazole_maj":"2024-02-28T14:20:00+01:00","gazole_prix":1.859,"sp95_maj":null,"sp95_prix":null,"e85_maj":null,"e85_prix":null,"gplc_maj":"2024-02-07T16:35:00+01:00","gplc_prix":1.099,"e10_maj":"2024-02-21T15:50:00+01:00","e10_prix":1.899,"sp98_maj":"2024-02-21T15:50:00+01:00","sp98_prix":1.999,"pop":"R"},{"lat":49.6535,"lon":-1.5493,"brand":null,"adresse":"2F Route de DENNEVILLE, 50110 Cherbourg-en-Cotentin","gazole_maj":"2024-02-28T09:45:06+01:00","gazole_prix":1.79,"sp95_maj":"2024-02-28T09:45:07+01:00","sp95_prix":1.845,"e85_maj":null,"e85_prix":null,"gplc_maj":null,"gplc_prix":null,"e10_maj":null,"e10_prix":null,"sp98_maj":"2024-02-28T09:45:07+01:00","sp98_prix":1.87,"pop":"R"},{"lat":50.651,"lon":1.609,"brand":"Carrefour Market","adresse":"Boulevard Raymond Splingard, 62230 Saint-\u00c9tienne-au-Mont","gazole_maj":"2024-02-20T08:58:46+01:00","gazole_prix":1.784,"sp95_maj":"2024-02-20T08:58:46+01:00","sp95_prix":1.849,"e85_maj":null,"e85_prix":null,"gplc_maj":null,"gplc_prix":null,"e10_maj":null,"e10_prix":null,"sp98_maj":"2024-02-20T08:58:47+01:00","sp98_prix":1.921,"pop":"R"},{"lat":45.532,"lon":2.142,"brand":"Intermarch\u00e9 Contact","adresse":"RUE DU PAS REDON, 19250 Meymac","gazole_maj":"2024-02-24T10:03:28+01:00","gazole_prix":1.799,"sp95_maj":"2024-02-24T10:03:28+01:00","sp95_prix":1.859,"e85_maj":null,"e85_prix":null,"gplc_maj":null,"gplc_prix":null,"e10_maj":"2024-02-24T10:03:28+01:00","e10_prix":1.819,"sp98_maj":null,"sp98_prix":null,"pop":"R"},{"lat":50.2118,"lon":1.7789,"brand":"Carrefour Contact","adresse":"1 RUE DE LA MAIRIE, 80860 Nouvion","gazole_maj":"2024-02-22T15:13:34+01:00","gazole_prix":1.795,"sp95_maj":"2024-02-22T15:13:34+01:00","sp95_prix":1.859,"e85_maj":null,"e85_prix":null,"gplc_maj":null,"gplc_prix":null,"e10_maj":null,"e10_prix":null,"sp98_maj":"2024-02-22T15:13:34+01:00","sp98_prix":1.899,"pop":"R"},{"lat":50.4751,"lon":2.5381,"brand":"Intermarch\u00e9","adresse":"Rue Augustin Caron, 62700 Bruay-la-Buissi\u00e8re","gazole_maj":"2024-02-28T09:29:58+01:00","gazole_prix":1.769,"sp95_maj":null,"sp95_prix":null,"e85_maj":"2024-02-28T09:29:58+01:00","e85_prix":0.849,"gplc_maj":null,"gplc_prix":null,"e10_maj":"2024-02-28T09:29:58+01:00","e10_prix":1.799,"sp98_maj":"2024-02-28T09:29:59+01:00","sp98_prix":1.889,"pop":"R"},{"lat":45.151,"lon":0.799,"brand":null,"adresse":"Autoroute A89 - Aire de Manoire, 24330 Boulazac Isle Manoire","gazole_maj":"2024-02-29T12:18:00+01:00","gazole_prix":1.778,"sp95_maj":null,"sp95_prix":null,"e85_maj":"2024-02-29T12:18:00+01:00","e85_prix":0.909,"gplc_maj":"2024-02-29T12:18:00+01:00","gplc_prix":0.975,"e10_maj":"2024-02-29T12:18:00+01:00","e10_prix":1.799,"sp98_maj":"2024-02-29T12:18:00+01:00","sp98_prix":1.889,"pop":"A"},{"lat":44.1313,"lon":3.3828,"brand":"Dyneff","adresse":"Le Gardiol, 30750 Lanu\u00e9jols","gazole_maj":"2024-02-29T15:00:00+01:00","gazole_prix":1.88,"sp95_maj":null,"sp95_prix":null,"e85_maj":null,"e85_prix":null,"gplc_maj":null,"gplc_prix":null,"e10_maj":"2024-02-29T15:00:00+01:00","e10_prix":1.87,"sp98_maj":null,"sp98_prix":null,"pop":"R"},{"lat":47.74,"lon":3.599,"brand":"Atac","adresse":"CENTRE ARTISANAL, 89290 Champs-sur-Yonne","gazole_maj":"2024-02-13T01:00:00+01:00","gazole_prix":1.869,"sp95_maj":"2024-02-13T01:00:00+01:00","sp95_prix":1.949,"e85_maj":null,"e85_prix":null,"gplc_maj":null,"gplc_prix":null,"e10_maj":null,"e10_prix":null,"sp98_maj":"2024-01-30T01:00:00+01:00","sp98_prix":1.979,"pop":"R"},{"lat":44.2402,"lon":2.0328,"brand":"Intermarch\u00e9 Contact","adresse":"ZA LE LAC, 12270 La Fouillade","gazole_maj":"2024-02-21T13:01:05+01:00","gazole_prix":1.809,"sp95_maj":null,"sp95_prix":null,"e85_maj":null,"e85_prix":null,"gplc_maj":null,"gplc_prix":null,"e10_maj":"2024-02-21T13:01:06+01:00","e10_prix":1.839,"sp98_maj":"2024-02-21T13:01:06+01:00","sp98_prix":1.929,"pop":"R"},{"lat":47.867,"lon":4.572,"brand":"Intermarch\u00e9","adresse":"Chauss\u00e9e de l'Europe, 21400 Ch\u00e2tillon-sur-Seine","gazole_maj":"2024-02-13T09:55:29+01:00","gazole_prix":1.849,"sp95_maj":null,"sp95_prix":null,"e85_maj":"2024-01-04T08:19:14+01:00","e85_prix":0.849,"gplc_maj":null,"gplc_prix":null,"e10_maj":"2024-02-13T09:55:30+01:00","e10_prix":1.839,"sp98_maj":"2024-02-13T09:55:30+01:00","sp98_prix":1.919,"pop":"R"},{"lat":48.6257,"lon":2.6301,"brand":null,"adresse":"AUTOROUTE A5B - AIRE DE GALANDE-LA-MARE-LAROCHE, 77550 \u00c9vry-Gr\u00e9gy-sur-Yerre","gazole_maj":"2024-02-29T10:00:00+01:00","gazole_prix":1.959,"sp95_maj":null,"sp95_prix":null,"e85_maj":"2024-02-29T10:00:00+01:00","e85_prix":0.999,"gplc_maj":null,"gplc_prix":null,"e10_maj":"2024-02-29T10:00:00+01:00","e10_prix":1.969,"sp98_maj":"2024-02-29T10:00:00+01:00","sp98_prix":1.99,"pop":"A"},{"lat":45.03,"lon":3.093,"brand":null,"adresse":"34 avenue de Verdun, 15100 Saint-Flour","gazole_maj":"2024-03-01T08:25:42+01:00","gazole_prix":1.863,"sp95_maj":"2024-03-01T08:25:42+01:00","sp95_prix":1.952,"e85_maj":null,"e85_prix":null,"gplc_maj":null,"gplc_prix":null,"e10_maj":null,"e10_prix":null,"sp98_maj":null,"sp98_prix":null,"pop":"R"},{"lat":48.2,"lon":2.992,"brand":"Intermarch\u00e9","adresse":"ROUTE DES BEDETS, 89690 Ch\u00e9roy","gazole_maj":"2024-03-01T07:39:30+01:00","gazole_prix":1.779,"sp95_maj":null,"sp95_prix":null,"e85_maj":"2024-03-01T07:39:30+01:00","e85_prix":0.848,"gplc_maj":null,"gplc_prix":null,"e10_maj":"2024-03-01T07:39:30+01:00","e10_prix":1.804,"sp98_maj":"2024-03-01T07:39:30+01:00","sp98_prix":1.886,"pop":"R"},{"lat":45.433,"lon":4.415,"brand":"Esso Express","adresse":"36 Rue de Terrenoire, 42100 Saint-\u00c9tienne","gazole_maj":"2024-03-01T08:01:00+01:00","gazole_prix":1.778,"sp95_maj":null,"sp95_prix":null,"e85_maj":null,"e85_prix":null,"gplc_maj":null,"gplc_prix":null,"e10_maj":"2024-03-01T08:01:00+01:00","e10_prix":1.822,"sp98_maj":"2024-03-01T08:01:00+01:00","sp98_prix":1.902,"pop":"R"},{"lat":47.824,"lon":-1.837,"brand":"Syst\u00e8me U","adresse":"35 Avenue du Port, 35480 Guipry-Messac","gazole_maj":"2024-02-27T08:06:55+01:00","gazole_prix":1.735,"sp95_maj":null,"sp95_prix":null,"e85_maj":null,"e85_prix":null,"gplc_maj":null,"gplc_prix":null,"e10_maj":"2024-02-27T15:05:00+01:00","e10_prix":1.749,"sp98_maj":"2024-02-23T11:05:28+01:00","sp98_prix":1.839,"pop":"R"},{"lat":44.871,"lon":-0.469,"brand":"Intermarch\u00e9","adresse":"Zone Activit\u00e9 les Tabernottes, 33370 Yvrac","gazole_maj":"2024-02-27T08:20:52+01:00","gazole_prix":1.759,"sp95_maj":null,"sp95_prix":null,"e85_maj":null,"e85_prix":null,"gplc_maj":null,"gplc_prix":null,"e10_maj":"2024-02-19T12:57:57+01:00","e10_prix":1.799,"sp98_maj":"2024-02-23T09:43:01+01:00","sp98_prix":1.879,"pop":"R"},{"lat":43.6729,"lon":6.9941,"brand":"Casino","adresse":"Route de Nice, 6650 Le Rouret","gazole_maj":"2024-03-01T07:50:35+01:00","gazole_prix":1.738,"sp95_maj":null,"sp95_prix":null,"e85_maj":null,"e85_prix":null,"gplc_maj":null,"gplc_prix":null,"e10_maj":"2024-03-01T07:50:36+01:00","e10_prix":1.775,"sp98_maj":"2024-03-01T07:50:36+01:00","sp98_prix":1.866,"pop":"R"},{"lat":50.4,"lon":3.043,"brand":"Carrefour","adresse":"ANCIENNE RN 43, 59128 Flers-en-Escrebieux","gazole_maj":"2024-02-28T09:02:07+01:00","gazole_prix":1.763,"sp95_maj":null,"sp95_prix":null,"e85_maj":"2024-02-23T07:03:06+01:00","e85_prix":0.877,"gplc_maj":null,"gplc_prix":null,"e10_maj":"2024-02-28T09:02:08+01:00","e10_prix":1.83,"sp98_maj":"2024-02-28T09:02:09+01:00","sp98_prix":1.935,"pop":"R"},{"lat":47.485,"lon":-0.548,"brand":"Total","adresse":"17 Quai F\u00e9lix Faure, 49100 Angers","gazole_maj":"2024-02-29T08:57:59+01:00","gazole_prix":1.891,"sp95_maj":null,"sp95_prix":null,"e85_maj":"2024-02-29T08:57:59+01:00","e85_prix":0.899,"gplc_maj":null,"gplc_prix":null,"e10_maj":"2024-02-29T08:57:59+01:00","e10_prix":1.889,"sp98_maj":null,"sp98_prix":null,"pop":"R"},{"lat":48.982,"lon":2.431,"brand":"Esso Express","adresse":"100 Avenue de la R\u00e9publique, 95400 Arnouville","gazole_maj":"2024-03-01T08:01:00+01:00","gazole_prix":1.83,"sp95_maj":null,"sp95_prix":null,"e85_maj":null,"e85_prix":null,"gplc_maj":null,"gplc_prix":null,"e10_maj":"2024-03-01T08:01:00+01:00","e10_prix":1.82,"sp98_maj":"2024-03-01T08:01:00+01:00","sp98_prix":1.9,"pop":"R"},{"lat":48.994,"lon":2.28,"brand":"Esso Express","adresse":"5 Avenue Voltaire, 95600 Eaubonne","gazole_maj":"2024-02-29T12:30:00+01:00","gazole_prix":1.803,"sp95_maj":null,"sp95_prix":null,"e85_maj":"2024-02-29T12:30:00+01:00","e85_prix":0.899,"gplc_maj":null,"gplc_prix":null,"e10_maj":"2024-02-29T12:30:00+01:00","e10_prix":1.815,"sp98_maj":"2024-02-29T12:30:00+01:00","sp98_prix":1.895,"pop":"R"},{"lat":48.787,"lon":5.14,"brand":"Intermarch\u00e9","adresse":"4 IMPASSE DE LA VARENNE, 55000 Fains-V\u00e9el","gazole_maj":"2024-03-01T08:06:14+01:00","gazole_prix":1.779,"sp95_maj":null,"sp95_prix":null,"e85_maj":null,"e85_prix":null,"gplc_maj":null,"gplc_prix":null,"e10_maj":"2024-02-29T08:07:45+01:00","e10_prix":1.809,"sp98_maj":"2024-02-13T06:41:18+01:00","sp98_prix":1.889,"pop":"R"},{"lat":48.811,"lon":0.695,"brand":"Ind\u00e9pendant sans enseigne","adresse":"Le Petit Hanoy, 27250 Rugles","gazole_maj":"2024-02-23T17:48:14+01:00","gazole_prix":1.782,"sp95_maj":"2024-02-23T17:48:14+01:00","sp95_prix":1.796,"e85_maj":null,"e85_prix":null,"gplc_maj":null,"gplc_prix":null,"e10_maj":null,"e10_prix":null,"sp98_maj":"2024-02-23T17:48:14+01:00","sp98_prix":1.869,"pop":"R"},{"lat":47.29,"lon":5.1,"brand":"Syst\u00e8me U","adresse":"Route de Chevigny, 21800 Sennecey-l\u00e8s-Dijon","gazole_maj":"2024-03-01T08:44:31+01:00","gazole_prix":1.769,"sp95_maj":null,"sp95_prix":null,"e85_maj":"2024-03-01T08:44:31+01:00","e85_prix":0.889,"gplc_maj":null,"gplc_prix":null,"e10_maj":"2024-03-01T08:44:31+01:00","e10_prix":1.829,"sp98_maj":"2024-03-01T08:44:32+01:00","sp98_prix":1.899,"pop":"R"},{"lat":44.855,"lon":-0.592,"brand":"Esso Express","adresse":"26 Boulevard Pierre 1er, 33000 Bordeaux","gazole_maj":"2024-02-29T13:45:00+01:00","gazole_prix":1.769,"sp95_maj":null,"sp95_prix":null,"e85_maj":null,"e85_prix":null,"gplc_maj":null,"gplc_prix":null,"e10_maj":"2024-02-28T14:00:00+01:00","e10_prix":1.819,"sp98_maj":"2024-02-28T14:00:00+01:00","sp98_prix":1.919,"pop":"R"},{"lat":48.279,"lon":1.623,"brand":null,"adresse":"Rue Denis Papin, 28150 Les Villages Vov\u00e9ens","gazole_maj":"2024-02-24T10:17:09+01:00","gazole_prix":1.749,"sp95_maj":null,"sp95_prix":null,"e85_maj":"2024-02-15T10:21:46+01:00","e85_prix":0.848,"gplc_maj":null,"gplc_prix":null,"e10_maj":"2024-02-29T10:53:26+01:00","e10_prix":1.779,"sp98_maj":"2024-02-23T10:04:40+01:00","sp98_prix":1.849,"pop":"R"},{"lat":46.107,"lon":-0.07,"brand":"Intermarch\u00e9","adresse":"6 avenue Louis Doignon, 79110 Chef-Boutonne","gazole_maj":"2024-02-27T13:00:00+01:00","gazole_prix":1.749,"sp95_maj":null,"sp95_prix":null,"e85_maj":null,"e85_prix":null,"gplc_maj":null,"gplc_prix":null,"e10_maj":"2024-02-13T10:00:00+01:00","e10_prix":1.789,"sp98_maj":"2024-02-13T10:00:00+01:00","sp98_prix":1.859,"pop":"R"},{"lat":43.8,"lon":1.221,"brand":"KAI","adresse":"CC LES SIGALERES - Av de Toulouse - CD 3, 82600 Aucamville","gazole_maj":"2024-02-29T11:49:12+01:00","gazole_prix":1.909,"sp95_maj":"2024-02-29T11:49:13+01:00","sp95_prix":1.969,"e85_maj":null,"e85_prix":null,"gplc_maj":null,"gplc_prix":null,"e10_maj":"2024-02-29T11:49:13+01:00","e10_prix":1.929,"sp98_maj":null,"sp98_prix":null,"pop":"R"},{"lat":44.407,"lon":4.394,"brand":"Intermarch\u00e9","adresse":"route Ruoms, 7150 Vallon-Pont-d'Arc","gazole_maj":"2024-02-17T12:50:52+01:00","gazole_prix":1.799,"sp95_maj":"2024-02-27T10:17:48+01:00","sp95_prix":1.874,"e85_maj":null,"e85_prix":null,"gplc_maj":null,"gplc_prix":null,"e10_maj":"2024-02-27T10:17:49+01:00","e10_prix":1.838,"sp98_maj":"2024-02-27T10:17:49+01:00","sp98_prix":1.915,"pop":"R"},{"lat":48.8,"lon":2.986,"brand":"Intermarch\u00e9","adresse":"PARC D'ACTIVITES PRES DES BOURDEAUX, 77515 Faremoutiers","gazole_maj":"2024-03-01T08:08:51+01:00","gazole_prix":1.839,"sp95_maj":"2024-03-01T08:09:14+01:00","sp95_prix":1.899,"e85_maj":null,"e85_prix":null,"gplc_maj":null,"gplc_prix":null,"e10_maj":null,"e10_prix":null,"sp98_maj":"2024-03-01T08:09:32+01:00","sp98_prix":1.949,"pop":"R"},{"lat":43.32,"lon":-0.36,"brand":"Leclerc","adresse":"Avenue Louis Sallenave, 64000 Pau","gazole_maj":"2024-03-01T02:18:00+01:00","gazole_prix":1.789,"sp95_maj":"2024-03-01T02:18:00+01:00","sp95_prix":1.856,"e85_maj":null,"e85_prix":null,"gplc_maj":null,"gplc_prix":null,"e10_maj":"2024-03-01T02:18:00+01:00","e10_prix":1.8,"sp98_maj":"2024-03-01T02:18:00+01:00","sp98_prix":1.878,"pop":"R"},{"lat":45.2771,"lon":5.6226,"brand":null,"adresse":"A48 AIRE ILE ROSE, 38340 Voreppe","gazole_maj":"2024-03-01T01:01:00+01:00","gazole_prix":2.049,"sp95_maj":null,"sp95_prix":null,"e85_maj":null,"e85_prix":null,"gplc_maj":"2024-03-01T01:01:00+01:00","gplc_prix":1.099,"e10_maj":"2024-03-01T01:01:00+01:00","e10_prix":2.099,"sp98_maj":"2024-03-01T01:01:00+01:00","sp98_prix":2.219,"pop":"A"},{"lat":46.242,"lon":6.025,"brand":"Carrefour Market","adresse":"RUE DE GENEVE -, 1630 Saint-Genis-Pouilly","gazole_maj":"2024-02-27T09:33:22+01:00","gazole_prix":1.82,"sp95_maj":null,"sp95_prix":null,"e85_maj":null,"e85_prix":null,"gplc_maj":null,"gplc_prix":null,"e10_maj":"2024-02-27T09:33:23+01:00","e10_prix":1.865,"sp98_maj":null,"sp98_prix":null,"pop":"R"},{"lat":43.578,"lon":1.327,"brand":"KAI","adresse":"CENTRE COMMERCIAL BORDENEUVE, 31170 Tournefeuille","gazole_maj":"2024-02-29T11:49:06+01:00","gazole_prix":1.909,"sp95_maj":"2024-02-29T11:49:06+01:00","sp95_prix":1.959,"e85_maj":null,"e85_prix":null,"gplc_maj":null,"gplc_prix":null,"e10_maj":"2024-02-29T11:49:07+01:00","e10_prix":1.919,"sp98_maj":null,"sp98_prix":null,"pop":"R"},{"lat":44.076,"lon":6.188,"brand":"Carrefour","adresse":"ROUTE DE MARSEILLE, 4000 Digne-les-Bains","gazole_maj":"2024-02-22T10:32:23+01:00","gazole_prix":1.875,"sp95_maj":null,"sp95_prix":null,"e85_maj":"2024-02-29T10:13:57+01:00","e85_prix":1.003,"gplc_maj":"2024-01-25T09:26:23+01:00","gplc_prix":0.997,"e10_maj":"2024-02-22T10:32:23+01:00","e10_prix":1.891,"sp98_maj":"2024-02-29T11:50:19+01:00","sp98_prix":1.965,"pop":"R"},{"lat":45.5707,"lon":4.7113,"brand":null,"adresse":"AUTOROUTE A47 - AIRE DE SAINT ROMAIN EN GIER, 69700 Saint-Romain-en-Gier","gazole_maj":"2024-02-28T16:05:00+01:00","gazole_prix":1.979,"sp95_maj":null,"sp95_prix":null,"e85_maj":null,"e85_prix":null,"gplc_maj":"2023-08-03T15:35:00+02:00","gplc_prix":1.149,"e10_maj":"2024-02-28T16:05:00+01:00","e10_prix":1.999,"sp98_maj":"2024-02-28T16:05:00+01:00","sp98_prix":2.119,"pop":"A"},{"lat":47.616,"lon":4.318,"brand":"Total","adresse":"ROUTE DE SEMUR, 21500 Cr\u00e9pand","gazole_maj":"2024-02-29T09:30:31+01:00","gazole_prix":1.894,"sp95_maj":null,"sp95_prix":null,"e85_maj":null,"e85_prix":null,"gplc_maj":null,"gplc_prix":null,"e10_maj":"2024-02-27T09:59:22+01:00","e10_prix":1.923,"sp98_maj":"2024-02-14T18:57:58+01:00","sp98_prix":1.99,"pop":"R"},{"lat":43.0654,"lon":0.5878,"brand":"Syst\u00e8me U","adresse":"Avenue de Luchon, 31210 Gourdan-Polignan","gazole_maj":"2024-02-28T09:11:38+01:00","gazole_prix":1.769,"sp95_maj":null,"sp95_prix":null,"e85_maj":"2024-02-24T20:17:40+01:00","e85_prix":0.849,"gplc_maj":"2024-02-26T10:46:14+01:00","gplc_prix":1.049,"e10_maj":"2024-02-24T20:17:40+01:00","e10_prix":1.819,"sp98_maj":"2024-02-24T20:17:40+01:00","sp98_prix":1.919,"pop":"R"},{"lat":48.928,"lon":2.271,"brand":null,"adresse":"16-22 AVENUE DE STALINGRAD, 92700 Colombes","gazole_maj":"2024-02-16T16:45:00+01:00","gazole_prix":1.959,"sp95_maj":null,"sp95_prix":null,"e85_maj":null,"e85_prix":null,"gplc_maj":null,"gplc_prix":null,"e10_maj":"2024-02-16T16:45:00+01:00","e10_prix":1.939,"sp98_maj":"2024-02-16T16:45:00+01:00","sp98_prix":2.059,"pop":"R"},{"lat":48.216,"lon":3.741,"brand":"Intermarch\u00e9","adresse":"29 Rue Joseph Anglade, 10160 Aix-Villemaur-P\u00e2lis","gazole_maj":"2024-02-27T09:36:26+01:00","gazole_prix":1.769,"sp95_maj":null,"sp95_prix":null,"e85_maj":null,"e85_prix":null,"gplc_maj":null,"gplc_prix":null,"e10_maj":"2024-02-19T09:49:51+01:00","e10_prix":1.809,"sp98_maj":"2024-02-19T09:49:52+01:00","sp98_prix":1.889,"pop":"R"},{"lat":50.7169,"lon":3.0016,"brand":"Carrefour Market","adresse":"Route de Comines, 59890 Quesnoy-sur-De\u00fble","gazole_maj":"2024-02-22T11:49:04+01:00","gazole_prix":1.819,"sp95_maj":null,"sp95_prix":null,"e85_maj":null,"e85_prix":null,"gplc_maj":null,"gplc_prix":null,"e10_maj":"2024-02-22T11:49:05+01:00","e10_prix":1.829,"sp98_maj":"2024-02-22T11:49:05+01:00","sp98_prix":1.919,"pop":"R"},{"lat":43.488,"lon":2.764,"brand":"GALLIEN","adresse":"12 Avenue de la gare, 34220 Saint-Pons-de-Thomi\u00e8res","gazole_maj":"2024-02-13T16:23:45+01:00","gazole_prix":1.799,"sp95_maj":"2024-02-20T12:15:55+01:00","sp95_prix":1.869,"e85_maj":"2023-12-31T09:26:25+01:00","e85_prix":0.999,"gplc_maj":null,"gplc_prix":null,"e10_maj":null,"e10_prix":null,"sp98_maj":null,"sp98_prix":null,"pop":"R"},{"lat":46.437,"lon":1.823,"brand":null,"adresse":"51 avenue de la R\u00e9publique, 36140 Aigurande","gazole_maj":"2024-02-28T10:49:47+01:00","gazole_prix":1.858,"sp95_maj":null,"sp95_prix":null,"e85_maj":"2024-02-28T10:49:48+01:00","e85_prix":0.899,"gplc_maj":null,"gplc_prix":null,"e10_maj":"2024-02-28T10:49:48+01:00","e10_prix":1.915,"sp98_maj":"2024-02-28T10:49:48+01:00","sp98_prix":1.99,"pop":"R"},{"lat":48.4418,"lon":2.1702,"brand":"Intermarch\u00e9","adresse":"32 Boulevard Saint-Michel, 91150 \u00c9tampes","gazole_maj":"2024-02-24T17:20:47+01:00","gazole_prix":1.805,"sp95_maj":null,"sp95_prix":null,"e85_maj":null,"e85_prix":null,"gplc_maj":null,"gplc_prix":null,"e10_maj":"2024-02-20T10:33:13+01:00","e10_prix":1.817,"sp98_maj":"2024-02-20T10:33:13+01:00","sp98_prix":1.899,"pop":"R"},{"lat":49.072,"lon":3.882,"brand":"Elan","adresse":"2 Avenue de Champagne, 51480 Damery","gazole_maj":"2024-02-27T15:02:06+01:00","gazole_prix":1.95,"sp95_maj":"2024-02-27T15:02:07+01:00","sp95_prix":1.95,"e85_maj":null,"e85_prix":null,"gplc_maj":null,"gplc_prix":null,"e10_maj":null,"e10_prix":null,"sp98_maj":"2024-01-02T19:23:55+01:00","sp98_prix":1.99,"pop":"R"},{"lat":43.614,"lon":3.809,"brand":"Intermarch\u00e9","adresse":"Route de Saint Georges d'Orques, 34990 Juvignac","gazole_maj":"2024-02-29T08:27:18+01:00","gazole_prix":1.859,"sp95_maj":null,"sp95_prix":null,"e85_maj":"2024-02-29T08:27:18+01:00","e85_prix":0.849,"gplc_maj":"2024-02-29T08:27:18+01:00","gplc_prix":0.999,"e10_maj":"2024-02-29T08:27:18+01:00","e10_prix":1.899,"sp98_maj":"2024-02-29T08:27:19+01:00","sp98_prix":1.989,"pop":"R"},{"lat":50.6335,"lon":2.7115,"brand":"Intermarch\u00e9","adresse":"Avenue des Aulnes, 59253 La Gorgue","gazole_maj":"2024-02-29T11:09:52+01:00","gazole_prix":1.755,"sp95_maj":null,"sp95_prix":null,"e85_maj":"2024-01-02T09:56:10+01:00","e85_prix":0.848,"gplc_maj":null,"gplc_prix":null,"e10_maj":"2024-02-29T11:09:52+01:00","e10_prix":1.789,"sp98_maj":"2024-02-23T09:40:41+01:00","sp98_prix":1.869,"pop":"R"},{"lat":48.9419,"lon":4.8863,"brand":"Ind\u00e9pendant sans enseigne","adresse":"Avenue de la Gare, 51330 Givry-en-Argonne","gazole_maj":"2024-02-01T11:56:06+01:00","gazole_prix":1.879,"sp95_maj":null,"sp95_prix":null,"e85_maj":null,"e85_prix":null,"gplc_maj":null,"gplc_prix":null,"e10_maj":"2024-02-01T11:56:07+01:00","e10_prix":1.929,"sp98_maj":"2023-12-18T15:07:56+01:00","sp98_prix":1.989,"pop":"R"},{"lat":43.297,"lon":5.586,"brand":"Ind\u00e9pendant sans enseigne","adresse":"1000 Route de Gemenos, 13400 Aubagne","gazole_maj":"2024-02-28T06:48:55+01:00","gazole_prix":1.844,"sp95_maj":null,"sp95_prix":null,"e85_maj":"2024-02-21T06:50:28+01:00","e85_prix":0.919,"gplc_maj":null,"gplc_prix":null,"e10_maj":"2024-02-28T06:48:55+01:00","e10_prix":1.875,"sp98_maj":"2024-02-28T06:48:55+01:00","sp98_prix":1.985,"pop":"R"},{"lat":45.0712,"lon":1.7377,"brand":null,"adresse":"RD15 LE BOURG, 19190 Le Pescher","gazole_maj":"2024-03-01T01:01:00+01:00","gazole_prix":1.896,"sp95_maj":null,"sp95_prix":null,"e85_maj":null,"e85_prix":null,"gplc_maj":null,"gplc_prix":null,"e10_maj":null,"e10_prix":null,"sp98_maj":"2024-03-01T01:01:00+01:00","sp98_prix":1.99,"pop":"R"},{"lat":45.3845,"lon":5.4723,"brand":null,"adresse":"AUTOROUTE A 48 GARE DE PEAGE, 38690 Colombe","gazole_maj":null,"gazole_prix":null,"sp95_maj":null,"sp95_prix":null,"e85_maj":null,"e85_prix":null,"gplc_maj":null,"gplc_prix":null,"e10_maj":null,"e10_prix":null,"sp98_maj":"2024-02-29T10:00:00+01:00","sp98_prix":2.19,"pop":"A"},{"lat":45.62,"lon":0.699,"brand":"Intermarch\u00e9","adresse":"CD 91, 24360 Pi\u00e9gut-Pluviers","gazole_maj":"2024-02-15T07:57:54+01:00","gazole_prix":1.859,"sp95_maj":"2024-02-15T07:57:54+01:00","sp95_prix":1.879,"e85_maj":null,"e85_prix":null,"gplc_maj":null,"gplc_prix":null,"e10_maj":"2024-02-15T07:57:54+01:00","e10_prix":1.829,"sp98_maj":"2024-02-15T07:57:54+01:00","sp98_prix":1.919,"pop":"R"},{"lat":48.829,"lon":1.958,"brand":"Auchan","adresse":"CD 161, 78370 Plaisir","gazole_maj":"2024-02-27T09:00:07+01:00","gazole_prix":1.813,"sp95_maj":null,"sp95_prix":null,"e85_maj":"2024-02-27T09:00:07+01:00","e85_prix":0.903,"gplc_maj":"2024-02-27T09:00:07+01:00","gplc_prix":0.96,"e10_maj":"2024-02-27T09:00:08+01:00","e10_prix":1.815,"sp98_maj":"2024-02-27T09:00:08+01:00","sp98_prix":1.909,"pop":"R"},{"lat":44.872,"lon":3.249,"brand":"BP","adresse":"A75 AIRE DE LA LOZERE, 48200 Les Monts-Verts","gazole_maj":"2024-02-28T15:55:00+01:00","gazole_prix":1.989,"sp95_maj":null,"sp95_prix":null,"e85_maj":null,"e85_prix":null,"gplc_maj":null,"gplc_prix":null,"e10_maj":"2024-02-29T14:25:00+01:00","e10_prix":2.069,"sp98_maj":"2024-02-29T14:25:00+01:00","sp98_prix":2.189,"pop":"A"},{"lat":47.736,"lon":-3.232,"brand":"Intermarch\u00e9","adresse":"5 Rue de la Madeleine, 56700 Merlevenez","gazole_maj":"2024-02-27T17:00:00+01:00","gazole_prix":1.749,"sp95_maj":null,"sp95_prix":null,"e85_maj":null,"e85_prix":null,"gplc_maj":null,"gplc_prix":null,"e10_maj":"2024-02-27T17:00:00+01:00","e10_prix":1.779,"sp98_maj":"2024-02-27T17:00:00+01:00","sp98_prix":1.849,"pop":"R"},{"lat":44.9134,"lon":5.7843,"brand":"Elan","adresse":"AVENUE 22 AOUT 1945, 38350 La Mure","gazole_maj":"2024-02-27T12:18:32+01:00","gazole_prix":1.839,"sp95_maj":"2024-01-30T10:00:12+01:00","sp95_prix":1.969,"e85_maj":null,"e85_prix":null,"gplc_maj":null,"gplc_prix":null,"e10_maj":null,"e10_prix":null,"sp98_maj":"2024-01-30T10:00:13+01:00","sp98_prix":1.99,"pop":"R"},{"lat":46.289,"lon":2.744,"brand":null,"adresse":"12 RUE JEAN JACQUES ROUSSEAU, 3600 Commentry","gazole_maj":"2024-02-28T08:34:06+01:00","gazole_prix":1.892,"sp95_maj":null,"sp95_prix":null,"e85_maj":"2024-02-28T08:34:06+01:00","e85_prix":0.919,"gplc_maj":null,"gplc_prix":null,"e10_maj":"2024-02-28T08:34:06+01:00","e10_prix":1.932,"sp98_maj":"2024-02-28T08:34:07+01:00","sp98_prix":1.99,"pop":"R"},{"lat":48.738,"lon":2.295,"brand":null,"adresse":"100 AV DU PRESIDENT KENNEDY, 92160 Antony","gazole_maj":"2024-03-01T01:01:00+01:00","gazole_prix":1.839,"sp95_maj":null,"sp95_prix":null,"e85_maj":null,"e85_prix":null,"gplc_maj":null,"gplc_prix":null,"e10_maj":"2024-03-01T01:01:00+01:00","e10_prix":1.857,"sp98_maj":"2024-03-01T01:01:00+01:00","sp98_prix":1.95,"pop":"R"},{"lat":44.567,"lon":6.195,"brand":"Elan","adresse":"RN 94 LES FAURIES, RN94, 5230 La B\u00e2tie-Neuve","gazole_maj":"2023-05-03T17:19:54+02:00","gazole_prix":1.81,"sp95_maj":"2023-05-03T17:20:18+02:00","sp95_prix":1.99,"e85_maj":null,"e85_prix":null,"gplc_maj":null,"gplc_prix":null,"e10_maj":null,"e10_prix":null,"sp98_maj":null,"sp98_prix":null,"pop":"R"},{"lat":48.819,"lon":2.168,"brand":"Esso Express","adresse":"191 Rue de Versailles, 92410 Ville-d'Avray","gazole_maj":"2024-02-27T08:02:00+01:00","gazole_prix":1.848,"sp95_maj":null,"sp95_prix":null,"e85_maj":null,"e85_prix":null,"gplc_maj":null,"gplc_prix":null,"e10_maj":"2024-02-27T08:02:00+01:00","e10_prix":1.859,"sp98_maj":"2024-02-27T08:02:00+01:00","sp98_prix":1.939,"pop":"R"},{"lat":50.6648,"lon":3.1404,"brand":"Supermarch\u00e9 Match","adresse":"140 Rue Jean Jaur\u00e8s, 59491 Villeneuve-d'Ascq","gazole_maj":"2024-03-01T08:40:32+01:00","gazole_prix":1.839,"sp95_maj":null,"sp95_prix":null,"e85_maj":"2024-03-01T08:40:32+01:00","e85_prix":0.949,"gplc_maj":null,"gplc_prix":null,"e10_maj":"2024-03-01T08:40:32+01:00","e10_prix":1.852,"sp98_maj":"2024-03-01T08:40:32+01:00","sp98_prix":1.965,"pop":"R"},{"lat":48.782,"lon":2.395,"brand":"Esso Express","adresse":"159 Avenue Rouget de l'Isle, 94400 Vitry-sur-Seine","gazole_maj":"2024-03-01T08:01:00+01:00","gazole_prix":1.852,"sp95_maj":null,"sp95_prix":null,"e85_maj":null,"e85_prix":null,"gplc_maj":null,"gplc_prix":null,"e10_maj":"2024-03-01T08:01:00+01:00","e10_prix":1.881,"sp98_maj":"2024-03-01T08:01:00+01:00","sp98_prix":1.961,"pop":"R"},{"lat":45.341,"lon":5.048,"brand":"Carrefour Market","adresse":"170 Avenue d'Auenwald, 38270 Beaurepaire","gazole_maj":"2024-02-24T12:29:31+01:00","gazole_prix":1.779,"sp95_maj":null,"sp95_prix":null,"e85_maj":"2024-02-15T15:05:40+01:00","e85_prix":0.919,"gplc_maj":null,"gplc_prix":null,"e10_maj":"2024-02-15T15:05:40+01:00","e10_prix":1.819,"sp98_maj":"2024-02-22T19:18:20+01:00","sp98_prix":1.899,"pop":"R"},{"lat":43.177,"lon":-0.2382,"brand":"Elan","adresse":"23 Avenue de la Gare, 64800 Coarraze","gazole_maj":"2024-02-28T08:47:11+01:00","gazole_prix":1.89,"sp95_maj":"2024-02-28T08:47:11+01:00","sp95_prix":1.96,"e85_maj":null,"e85_prix":null,"gplc_maj":null,"gplc_prix":null,"e10_maj":null,"e10_prix":null,"sp98_maj":null,"sp98_prix":null,"pop":"R"},{"lat":47.948,"lon":0.195,"brand":null,"adresse":"RN 23 - AERODROME, 72100 Le Mans","gazole_maj":"2024-03-01T01:01:00+01:00","gazole_prix":1.774,"sp95_maj":null,"sp95_prix":null,"e85_maj":"2024-03-01T01:01:00+01:00","e85_prix":0.849,"gplc_maj":"2024-03-01T01:01:00+01:00","gplc_prix":0.925,"e10_maj":"2024-03-01T01:01:00+01:00","e10_prix":1.787,"sp98_maj":"2024-03-01T01:01:00+01:00","sp98_prix":1.886,"pop":"R"},{"lat":44.7137,"lon":-0.3943,"brand":"Intermarch\u00e9","adresse":"1 Route de Cr\u00e9on, 33550 Langoiran","gazole_maj":"2024-02-27T09:29:57+01:00","gazole_prix":1.779,"sp95_maj":"2024-02-27T09:29:57+01:00","sp95_prix":1.849,"e85_maj":null,"e85_prix":null,"gplc_maj":null,"gplc_prix":null,"e10_maj":"2024-02-27T09:29:57+01:00","e10_prix":1.799,"sp98_maj":"2024-02-27T09:29:57+01:00","sp98_prix":1.869,"pop":"R"},{"lat":49.6102,"lon":5.0779,"brand":"Esso","adresse":"Avenue de la Paix, 8210 Mouzon","gazole_maj":"2024-02-26T08:33:19+01:00","gazole_prix":1.882,"sp95_maj":"2024-02-26T08:33:38+01:00","sp95_prix":1.968,"e85_maj":null,"e85_prix":null,"gplc_maj":null,"gplc_prix":null,"e10_maj":null,"e10_prix":null,"sp98_maj":"2024-02-26T08:33:57+01:00","sp98_prix":2.015,"pop":"R"},{"lat":49.6034,"lon":-1.602,"brand":"Auchan","adresse":"Centre Commercial du Cotentin, 50470 Cherbourg-en-Cotentin","gazole_maj":"2024-02-29T09:59:55+01:00","gazole_prix":1.785,"sp95_maj":null,"sp95_prix":null,"e85_maj":"2024-02-29T09:59:55+01:00","e85_prix":0.877,"gplc_maj":null,"gplc_prix":null,"e10_maj":"2024-02-29T09:59:55+01:00","e10_prix":1.795,"sp98_maj":"2024-02-29T09:59:55+01:00","sp98_prix":1.877,"pop":"R"},{"lat":45.778,"lon":5.689,"brand":"Intermarch\u00e9","adresse":"RN 504 - ZI de Penaye, 1300 Chazey-Bons","gazole_maj":"2024-02-27T08:55:38+01:00","gazole_prix":1.775,"sp95_maj":null,"sp95_prix":null,"e85_maj":null,"e85_prix":null,"gplc_maj":null,"gplc_prix":null,"e10_maj":"2024-02-21T09:27:58+01:00","e10_prix":1.815,"sp98_maj":"2024-02-15T09:48:19+01:00","sp98_prix":1.899,"pop":"R"},{"lat":43.394,"lon":5.135,"brand":"Carrefour","adresse":"RN 568, 13220 Ch\u00e2teauneuf-les-Martigues","gazole_maj":"2024-02-29T09:29:15+01:00","gazole_prix":1.768,"sp95_maj":"2024-02-29T09:29:16+01:00","sp95_prix":1.889,"e85_maj":null,"e85_prix":null,"gplc_maj":"2024-02-29T09:29:16+01:00","gplc_prix":0.931,"e10_maj":"2024-02-29T09:29:16+01:00","e10_prix":1.844,"sp98_maj":"2024-02-29T09:29:17+01:00","sp98_prix":1.933,"pop":"R"},{"lat":48.1,"lon":-4.013,"brand":"Intermarch\u00e9","adresse":"Lieu-Dit Lannechuen, 29510 Briec","gazole_maj":"2024-02-24T10:44:04+01:00","gazole_prix":1.773,"sp95_maj":null,"sp95_prix":null,"e85_maj":"2024-02-12T17:52:01+01:00","e85_prix":0.848,"gplc_maj":null,"gplc_prix":null,"e10_maj":"2024-02-21T10:17:11+01:00","e10_prix":1.788,"sp98_maj":"2024-02-21T10:17:11+01:00","sp98_prix":1.858,"pop":"R"},{"lat":47.481,"lon":6.381,"brand":null,"adresse":"ZA DU PRE ROND, 25680 Cuse-et-Adrisans","gazole_maj":"2023-10-09T20:08:36+02:00","gazole_prix":1.952,"sp95_maj":null,"sp95_prix":null,"e85_maj":null,"e85_prix":null,"gplc_maj":null,"gplc_prix":null,"e10_maj":"2023-10-09T20:08:37+02:00","e10_prix":1.922,"sp98_maj":"2023-10-09T20:08:37+02:00","sp98_prix":1.99,"pop":"R"},{"lat":43.956,"lon":1.221,"brand":"Elan","adresse":"171 Avenue d'Auch, 82700 Montech","gazole_maj":"2024-02-29T11:12:37+01:00","gazole_prix":1.919,"sp95_maj":"2024-02-29T11:12:38+01:00","sp95_prix":1.989,"e85_maj":null,"e85_prix":null,"gplc_maj":null,"gplc_prix":null,"e10_maj":null,"e10_prix":null,"sp98_maj":null,"sp98_prix":null,"pop":"R"},{"lat":50.5812,"lon":3.1114,"brand":null,"adresse":"BOULEVARD DU BOIS D'HENCHEMONT, 59817 Lesquin","gazole_maj":"2024-03-01T01:00:00+01:00","gazole_prix":2.034,"sp95_maj":null,"sp95_prix":null,"e85_maj":null,"e85_prix":null,"gplc_maj":null,"gplc_prix":null,"e10_maj":null,"e10_prix":null,"sp98_maj":null,"sp98_prix":null,"pop":"R"},{"lat":44.7212,"lon":1.3695,"brand":null,"adresse":"route de Fumel, 46300 Gourdon","gazole_maj":"2024-02-14T10:29:30+01:00","gazole_prix":1.819,"sp95_maj":null,"sp95_prix":null,"e85_maj":"2024-01-03T11:24:22+01:00","e85_prix":0.989,"gplc_maj":null,"gplc_prix":null,"e10_maj":"2024-02-15T15:28:13+01:00","e10_prix":1.839,"sp98_maj":"2024-02-15T15:28:13+01:00","sp98_prix":1.919,"pop":"R"},{"lat":44.134,"lon":4.8173,"brand":"Casino","adresse":"Quartier de l' Argensol, 84100 Orange","gazole_maj":"2024-02-28T09:42:00+01:00","gazole_prix":1.736,"sp95_maj":null,"sp95_prix":null,"e85_maj":"2024-01-05T10:42:48+01:00","e85_prix":0.879,"gplc_maj":null,"gplc_prix":null,"e10_maj":"2024-02-28T09:42:01+01:00","e10_prix":1.749,"sp98_maj":null,"sp98_prix":null,"pop":"R"},{"lat":47.9819,"lon":-4.0737,"brand":"Casino","adresse":"2 Avenue de Ty Bos, 29000 Quimper","gazole_maj":"2024-02-29T09:30:00+01:00","gazole_prix":1.779,"sp95_maj":null,"sp95_prix":null,"e85_maj":null,"e85_prix":null,"gplc_maj":null,"gplc_prix":null,"e10_maj":"2024-02-29T09:30:00+01:00","e10_prix":1.769,"sp98_maj":"2024-02-29T09:30:00+01:00","sp98_prix":1.841,"pop":"R"},{"lat":43.6687,"lon":7.1919,"brand":null,"adresse":"702 AVENUE DU GENERAL DE GAULLE, 6700 Saint-Laurent-du-Var","gazole_maj":"2024-03-01T01:01:00+01:00","gazole_prix":1.87,"sp95_maj":null,"sp95_prix":null,"e85_maj":"2024-03-01T01:01:00+01:00","e85_prix":0.919,"gplc_maj":null,"gplc_prix":null,"e10_maj":"2024-03-01T01:01:00+01:00","e10_prix":1.897,"sp98_maj":"2024-03-01T01:01:00+01:00","sp98_prix":1.99,"pop":"R"},{"lat":48.9208,"lon":2.3062,"brand":null,"adresse":"113 AV LAURENT CELY, 92230 Gennevilliers","gazole_maj":"2024-02-29T22:00:00+01:00","gazole_prix":1.879,"sp95_maj":null,"sp95_prix":null,"e85_maj":null,"e85_prix":null,"gplc_maj":null,"gplc_prix":null,"e10_maj":"2024-02-29T22:00:00+01:00","e10_prix":1.892,"sp98_maj":"2024-02-29T22:00:00+01:00","sp98_prix":1.989,"pop":"R"},{"lat":45.827,"lon":3.3735,"brand":"Carrefour Market","adresse":"RUE GEORGES CLEMENCEAU, 63190 Lezoux","gazole_maj":"2024-02-26T16:14:14+01:00","gazole_prix":1.799,"sp95_maj":null,"sp95_prix":null,"e85_maj":null,"e85_prix":null,"gplc_maj":null,"gplc_prix":null,"e10_maj":"2024-02-26T16:14:15+01:00","e10_prix":1.829,"sp98_maj":"2024-02-26T16:14:15+01:00","sp98_prix":1.981,"pop":"R"},{"lat":47.881,"lon":6.3062,"brand":null,"adresse":"AVENUE JACQUES PARISOT, 70320 Corbenay","gazole_maj":"2024-02-26T10:32:33+01:00","gazole_prix":1.789,"sp95_maj":null,"sp95_prix":null,"e85_maj":null,"e85_prix":null,"gplc_maj":null,"gplc_prix":null,"e10_maj":"2024-02-20T09:33:16+01:00","e10_prix":1.789,"sp98_maj":"2024-02-20T09:33:46+01:00","sp98_prix":1.869,"pop":"R"},{"lat":45.737,"lon":4.824,"brand":null,"adresse":"44 AVENUE LECLERC, 69007 Lyon","gazole_maj":"2024-02-29T10:57:02+01:00","gazole_prix":1.859,"sp95_maj":"2024-02-29T10:57:02+01:00","sp95_prix":1.949,"e85_maj":null,"e85_prix":null,"gplc_maj":"2024-02-16T10:30:53+01:00","gplc_prix":1.019,"e10_maj":null,"e10_prix":null,"sp98_maj":"2024-02-29T10:57:02+01:00","sp98_prix":1.979,"pop":"R"},{"lat":48.888,"lon":5.54,"brand":"Total","adresse":"6 RUE DU FORT, 55300 Saint-Mihiel","gazole_maj":"2024-02-29T09:19:09+01:00","gazole_prix":1.893,"sp95_maj":null,"sp95_prix":null,"e85_maj":"2024-02-23T10:03:49+01:00","e85_prix":0.919,"gplc_maj":null,"gplc_prix":null,"e10_maj":"2024-02-29T09:19:10+01:00","e10_prix":1.919,"sp98_maj":"2024-02-29T09:19:10+01:00","sp98_prix":1.99,"pop":"R"},{"lat":48.972,"lon":-0.2475,"brand":null,"adresse":"lieux dit la glaci\u00e8re, 14420 Potigny","gazole_maj":"2024-02-20T15:06:26+01:00","gazole_prix":1.826,"sp95_maj":"2024-02-20T15:06:27+01:00","sp95_prix":1.877,"e85_maj":null,"e85_prix":null,"gplc_maj":null,"gplc_prix":null,"e10_maj":null,"e10_prix":null,"sp98_maj":"2024-02-20T15:06:27+01:00","sp98_prix":1.911,"pop":"R"},{"lat":43.6896,"lon":4.2733,"brand":null,"adresse":"206 avenue de la condamine, 30600 Vauvert","gazole_maj":"2024-02-28T10:23:42+01:00","gazole_prix":1.789,"sp95_maj":"2024-02-14T09:47:32+01:00","sp95_prix":1.869,"e85_maj":"2024-01-13T10:47:21+01:00","e85_prix":0.999,"gplc_maj":null,"gplc_prix":null,"e10_maj":"2024-02-28T10:23:43+01:00","e10_prix":1.819,"sp98_maj":"2024-02-28T10:23:43+01:00","sp98_prix":1.899,"pop":"R"},{"lat":45.95,"lon":4.204,"brand":"Dyneff","adresse":"114 route de Roanne, 42470 Saint-Symphorien-de-Lay","gazole_maj":"2024-02-16T10:24:32+01:00","gazole_prix":1.919,"sp95_maj":"2024-02-16T10:24:33+01:00","sp95_prix":1.959,"e85_maj":"2023-12-08T13:12:19+01:00","e85_prix":1.199,"gplc_maj":null,"gplc_prix":null,"e10_maj":null,"e10_prix":null,"sp98_maj":null,"sp98_prix":null,"pop":"R"},{"lat":48.171,"lon":-1.72,"brand":"Total","adresse":"LA BROSSE, 35520 La Chapelle-des-Fougeretz","gazole_maj":"2024-02-27T09:30:45+01:00","gazole_prix":1.88,"sp95_maj":null,"sp95_prix":null,"e85_maj":null,"e85_prix":null,"gplc_maj":null,"gplc_prix":null,"e10_maj":"2024-02-27T09:30:45+01:00","e10_prix":1.885,"sp98_maj":"2024-02-27T09:30:46+01:00","sp98_prix":1.987,"pop":"R"},{"lat":49.135,"lon":4.366,"brand":"Intermarch\u00e9","adresse":"Rue des Tourni\u00e8res, 51400 Mourmelon-le-Grand","gazole_maj":"2024-02-26T10:00:29+01:00","gazole_prix":1.799,"sp95_maj":null,"sp95_prix":null,"e85_maj":"2024-01-20T11:06:49+01:00","e85_prix":0.849,"gplc_maj":null,"gplc_prix":null,"e10_maj":"2024-02-13T10:09:49+01:00","e10_prix":1.819,"sp98_maj":"2024-02-16T11:10:19+01:00","sp98_prix":1.909,"pop":"R"},{"lat":47.338,"lon":-1.655,"brand":"Shell","adresse":"RN 137 - Aire de Treilli\u00e8res Ouest, 44119 Treilli\u00e8res","gazole_maj":"2024-02-29T10:30:00+01:00","gazole_prix":1.937,"sp95_maj":null,"sp95_prix":null,"e85_maj":null,"e85_prix":null,"gplc_maj":null,"gplc_prix":null,"e10_maj":"2024-02-29T10:30:00+01:00","e10_prix":2.042,"sp98_maj":"2024-02-29T10:30:00+01:00","sp98_prix":2.182,"pop":"A"},{"lat":44.193,"lon":5.9445,"brand":null,"adresse":"3 AVENUE DE LA LIBERATION, 4200 Sisteron","gazole_maj":"2024-02-23T14:09:56+01:00","gazole_prix":1.799,"sp95_maj":null,"sp95_prix":null,"e85_maj":"2024-02-23T14:09:56+01:00","e85_prix":0.999,"gplc_maj":null,"gplc_prix":null,"e10_maj":"2024-02-23T14:09:56+01:00","e10_prix":1.819,"sp98_maj":"2024-02-23T15:43:21+01:00","sp98_prix":1.969,"pop":"R"},{"lat":48.35,"lon":5.694,"brand":"Total","adresse":"3 Avenue Fran\u00e7ois de Neufchateau, 88300 Neufch\u00e2teau","gazole_maj":"2024-02-13T12:09:59+01:00","gazole_prix":1.849,"sp95_maj":"2024-02-13T12:09:59+01:00","sp95_prix":1.949,"e85_maj":"2024-02-13T12:10:00+01:00","e85_prix":0.899,"gplc_maj":null,"gplc_prix":null,"e10_maj":null,"e10_prix":null,"sp98_maj":null,"sp98_prix":null,"pop":"R"},{"lat":43.3412,"lon":5.4568,"brand":"Esso Express","adresse":"89 AVENUE DE LA LIBERATION, 13380 Plan-de-Cuques","gazole_maj":"2024-02-27T08:01:00+01:00","gazole_prix":1.787,"sp95_maj":null,"sp95_prix":null,"e85_maj":"2024-02-27T08:01:00+01:00","e85_prix":0.899,"gplc_maj":null,"gplc_prix":null,"e10_maj":"2024-02-27T08:01:00+01:00","e10_prix":1.799,"sp98_maj":"2024-02-27T08:01:00+01:00","sp98_prix":1.879,"pop":"R"},{"lat":45.053,"lon":3.9,"brand":"Ind\u00e9pendant sans enseigne","adresse":"17 Avenue des Champs \u00c9lys\u00e9es, 43770 Chadrac","gazole_maj":"2024-03-01T06:01:43+01:00","gazole_prix":1.769,"sp95_maj":null,"sp95_prix":null,"e85_maj":null,"e85_prix":null,"gplc_maj":null,"gplc_prix":null,"e10_maj":"2024-03-01T06:01:43+01:00","e10_prix":1.825,"sp98_maj":"2024-03-01T06:01:44+01:00","sp98_prix":1.916,"pop":"R"},{"lat":48.596,"lon":7.709,"brand":null,"adresse":"142 ROUTE D' OBERHAUSBERGEN, 67200 Strasbourg","gazole_maj":"2024-03-01T01:01:00+01:00","gazole_prix":1.779,"sp95_maj":null,"sp95_prix":null,"e85_maj":"2024-03-01T01:01:00+01:00","e85_prix":0.899,"gplc_maj":"2024-03-01T01:01:00+01:00","gplc_prix":0.924,"e10_maj":"2024-03-01T01:01:00+01:00","e10_prix":1.781,"sp98_maj":"2024-03-01T01:01:00+01:00","sp98_prix":1.863,"pop":"R"},{"lat":49.2886,"lon":0.1955,"brand":"Total","adresse":"Rue G CLEMENCEAU  zone industrielle, 14130 Pont-l'\u00c9v\u00eaque","gazole_maj":"2024-03-01T07:39:00+01:00","gazole_prix":1.872,"sp95_maj":null,"sp95_prix":null,"e85_maj":null,"e85_prix":null,"gplc_maj":null,"gplc_prix":null,"e10_maj":"2024-03-01T07:39:00+01:00","e10_prix":1.894,"sp98_maj":"2024-03-01T07:39:01+01:00","sp98_prix":1.99,"pop":"R"},{"lat":48.8132,"lon":2.5664,"brand":"Total","adresse":"63 Rue Maurice Berteaux, 94420 Le Plessis-Tr\u00e9vise","gazole_maj":"2024-03-01T08:23:18+01:00","gazole_prix":1.925,"sp95_maj":null,"sp95_prix":null,"e85_maj":null,"e85_prix":null,"gplc_maj":null,"gplc_prix":null,"e10_maj":"2024-02-27T08:31:22+01:00","e10_prix":1.927,"sp98_maj":"2024-01-26T08:12:59+01:00","sp98_prix":1.99,"pop":"R"},{"lat":48.184,"lon":3.287,"brand":"Total","adresse":"Route de Lyon, 89100 Sens","gazole_maj":"2024-03-01T08:31:14+01:00","gazole_prix":1.91,"sp95_maj":null,"sp95_prix":null,"e85_maj":null,"e85_prix":null,"gplc_maj":null,"gplc_prix":null,"e10_maj":"2024-02-24T08:26:42+01:00","e10_prix":1.94,"sp98_maj":"2024-01-13T08:24:32+01:00","sp98_prix":1.99,"pop":"R"},{"lat":44.0515,"lon":5.0412,"brand":"Leclerc","adresse":"Boulevard Naquet, 84200 Carpentras","gazole_maj":"2024-02-29T08:09:24+01:00","gazole_prix":1.779,"sp95_maj":"2024-02-26T06:40:21+01:00","sp95_prix":1.869,"e85_maj":"2024-02-29T08:09:25+01:00","e85_prix":0.869,"gplc_maj":null,"gplc_prix":null,"e10_maj":"2024-02-24T06:35:03+01:00","e10_prix":1.809,"sp98_maj":null,"sp98_prix":null,"pop":"R"},{"lat":47.974,"lon":2.734,"brand":"G\u00e9ant","adresse":"Avenue d'Antibes, 45200 Amilly","gazole_maj":"2024-03-01T07:37:39+01:00","gazole_prix":1.752,"sp95_maj":null,"sp95_prix":null,"e85_maj":null,"e85_prix":null,"gplc_maj":"2024-02-19T07:30:18+01:00","gplc_prix":0.939,"e10_maj":"2024-03-01T07:37:40+01:00","e10_prix":1.786,"sp98_maj":"2024-03-01T07:37:40+01:00","sp98_prix":1.862,"pop":"R"},{"lat":49.305,"lon":-1.156,"brand":"Esso","adresse":"ROUTE NATIONALE 13, 50500 Carentan-les-Marais","gazole_maj":"2024-02-28T12:08:00+01:00","gazole_prix":1.854,"sp95_maj":null,"sp95_prix":null,"e85_maj":null,"e85_prix":null,"gplc_maj":null,"gplc_prix":null,"e10_maj":"2024-02-28T12:08:00+01:00","e10_prix":1.879,"sp98_maj":"2024-02-28T12:08:00+01:00","sp98_prix":1.969,"pop":"R"},{"lat":46.607,"lon":-1.664,"brand":"Syst\u00e8me U","adresse":"1 rue des Bl\u00e9s, La Mothe Achard, 85150 Les Achards","gazole_maj":"2024-02-28T08:35:04+01:00","gazole_prix":1.736,"sp95_maj":null,"sp95_prix":null,"e85_maj":"2024-02-17T20:22:00+01:00","e85_prix":0.867,"gplc_maj":null,"gplc_prix":null,"e10_maj":"2024-02-26T09:57:19+01:00","e10_prix":1.753,"sp98_maj":"2024-02-26T09:57:19+01:00","sp98_prix":1.833,"pop":"R"},{"lat":49.174,"lon":6.918,"brand":null,"adresse":"655 Rue de Sarreguemines, 57600 \u0152ting","gazole_maj":"2024-02-27T08:01:00+01:00","gazole_prix":1.818,"sp95_maj":null,"sp95_prix":null,"e85_maj":null,"e85_prix":null,"gplc_maj":null,"gplc_prix":null,"e10_maj":"2024-02-27T08:01:00+01:00","e10_prix":1.81,"sp98_maj":"2024-02-27T08:01:00+01:00","sp98_prix":1.89,"pop":"R"},{"lat":44.74,"lon":1.391,"brand":null,"adresse":"9 BOULEVARD DE LA MADELEINE, 46300 Gourdon","gazole_maj":"2024-02-29T08:39:42+01:00","gazole_prix":1.891,"sp95_maj":null,"sp95_prix":null,"e85_maj":null,"e85_prix":null,"gplc_maj":null,"gplc_prix":null,"e10_maj":"2024-02-29T08:39:42+01:00","e10_prix":1.913,"sp98_maj":"2024-02-29T08:39:42+01:00","sp98_prix":1.99,"pop":"R"},{"lat":43.4176,"lon":5.2336,"brand":"Casino","adresse":"ZAC DE LA LAUVE, 13730 Saint-Victoret","gazole_maj":"2024-02-29T09:09:16+01:00","gazole_prix":1.727,"sp95_maj":null,"sp95_prix":null,"e85_maj":null,"e85_prix":null,"gplc_maj":null,"gplc_prix":null,"e10_maj":"2024-02-29T09:09:16+01:00","e10_prix":1.76,"sp98_maj":"2024-02-29T09:09:17+01:00","sp98_prix":1.85,"pop":"R"},{"lat":50.946,"lon":1.837,"brand":"Avia","adresse":"70 Avenue Roger Salengro, 62100 Calais","gazole_maj":"2024-03-01T00:56:00+01:00","gazole_prix":1.851,"sp95_maj":null,"sp95_prix":null,"e85_maj":"2024-01-04T00:56:00+01:00","e85_prix":0.981,"gplc_maj":"2024-01-18T00:56:00+01:00","gplc_prix":1.017,"e10_maj":"2024-03-01T00:56:00+01:00","e10_prix":1.869,"sp98_maj":"2024-03-01T00:56:00+01:00","sp98_prix":1.966,"pop":"R"},{"lat":48.8567,"lon":2.3791,"brand":"Elan","adresse":"175 Avenue Ledru-Rollin, 75011 Paris","gazole_maj":"2023-12-18T20:58:44+01:00","gazole_prix":1.99,"sp95_maj":"2023-12-20T20:55:00+01:00","sp95_prix":1.99,"e85_maj":null,"e85_prix":null,"gplc_maj":null,"gplc_prix":null,"e10_maj":null,"e10_prix":null,"sp98_maj":null,"sp98_prix":null,"pop":"R"},{"lat":44.7574,"lon":0.4111,"brand":null,"adresse":"18 place de l'ancien temple, 24240 Sigoul\u00e8s-et-Flaugeac","gazole_maj":"2024-02-16T09:11:34+01:00","gazole_prix":1.809,"sp95_maj":"2024-02-16T09:11:35+01:00","sp95_prix":1.839,"e85_maj":null,"e85_prix":null,"gplc_maj":null,"gplc_prix":null,"e10_maj":null,"e10_prix":null,"sp98_maj":"2024-02-16T09:11:35+01:00","sp98_prix":1.899,"pop":"R"},{"lat":43.935,"lon":-0.062,"brand":"Intermarch\u00e9","adresse":"Rue Cousin\u00e9, 32150 Cazaubon","gazole_maj":"2024-02-16T10:00:00+01:00","gazole_prix":1.798,"sp95_maj":null,"sp95_prix":null,"e85_maj":null,"e85_prix":null,"gplc_maj":null,"gplc_prix":null,"e10_maj":"2024-02-16T10:00:00+01:00","e10_prix":1.819,"sp98_maj":"2024-02-16T10:00:00+01:00","sp98_prix":1.868,"pop":"R"},{"lat":48.389,"lon":-4.528,"brand":"Carrefour","adresse":"126 Boulevard de Plymouth, 29200 Brest","gazole_maj":"2024-02-29T09:45:00+01:00","gazole_prix":1.766,"sp95_maj":"2024-02-29T09:45:00+01:00","sp95_prix":1.841,"e85_maj":null,"e85_prix":null,"gplc_maj":null,"gplc_prix":null,"e10_maj":"2024-02-29T09:45:00+01:00","e10_prix":1.775,"sp98_maj":"2024-02-29T09:45:00+01:00","sp98_prix":1.914,"pop":"R"},{"lat":45.289,"lon":5.639,"brand":null,"adresse":"129 avenue Simone Veil - avenue du 11 novembre, 38340 Voreppe","gazole_maj":"2024-03-01T08:49:42+01:00","gazole_prix":1.787,"sp95_maj":null,"sp95_prix":null,"e85_maj":"2024-03-01T08:49:43+01:00","e85_prix":0.982,"gplc_maj":null,"gplc_prix":null,"e10_maj":"2024-03-01T08:49:43+01:00","e10_prix":1.825,"sp98_maj":null,"sp98_prix":null,"pop":"R"},{"lat":46.7655,"lon":-1.5048,"brand":null,"adresse":"2 RUE DE LA BRACHETIERE, 85170 Le Poir\u00e9-sur-Vie","gazole_maj":"2024-02-16T11:13:04+01:00","gazole_prix":1.769,"sp95_maj":null,"sp95_prix":null,"e85_maj":null,"e85_prix":null,"gplc_maj":null,"gplc_prix":null,"e10_maj":"2024-02-16T11:13:05+01:00","e10_prix":1.757,"sp98_maj":"2024-02-16T11:13:05+01:00","sp98_prix":1.825,"pop":"R"},{"lat":43.2951,"lon":5.4445,"brand":"G\u00e9ant","adresse":"Avenue William Booth, 13012 Marseille","gazole_maj":"2024-02-29T08:49:11+01:00","gazole_prix":1.73,"sp95_maj":null,"sp95_prix":null,"e85_maj":null,"e85_prix":null,"gplc_maj":null,"gplc_prix":null,"e10_maj":"2024-02-29T08:49:12+01:00","e10_prix":1.763,"sp98_maj":"2024-02-29T08:49:12+01:00","sp98_prix":1.853,"pop":"R"},{"lat":49.038,"lon":-1.446,"brand":null,"adresse":"2, AVENUE DE VERDUN, 50200 Coutances","gazole_maj":"2024-03-01T01:01:00+01:00","gazole_prix":1.789,"sp95_maj":null,"sp95_prix":null,"e85_maj":"2024-03-01T01:01:00+01:00","e85_prix":0.899,"gplc_maj":null,"gplc_prix":null,"e10_maj":"2024-03-01T01:01:00+01:00","e10_prix":1.798,"sp98_maj":"2024-03-01T01:01:00+01:00","sp98_prix":1.884,"pop":"R"},{"lat":43.3923,"lon":5.2569,"brand":"Agip","adresse":"AIRE DE REBUTY A55, 13180 Le Rove","gazole_maj":"2024-02-29T23:00:00+01:00","gazole_prix":2.029,"sp95_maj":null,"sp95_prix":null,"e85_maj":"2024-02-29T23:00:00+01:00","e85_prix":1.029,"gplc_maj":"2024-02-29T23:00:00+01:00","gplc_prix":1.149,"e10_maj":"2024-02-29T23:00:00+01:00","e10_prix":2.069,"sp98_maj":"2024-02-29T23:00:00+01:00","sp98_prix":2.169,"pop":"A"},{"lat":46.5598,"lon":-1.0606,"brand":"Super Casino","adresse":"Route de Nantes, 85210 Sainte-Hermine","gazole_maj":"2024-02-28T09:19:26+01:00","gazole_prix":1.764,"sp95_maj":null,"sp95_prix":null,"e85_maj":null,"e85_prix":null,"gplc_maj":null,"gplc_prix":null,"e10_maj":"2024-02-28T09:19:27+01:00","e10_prix":1.741,"sp98_maj":"2024-02-28T09:19:27+01:00","sp98_prix":1.818,"pop":"R"},{"lat":45.8855,"lon":4.8936,"brand":null,"adresse":"AIRE DE MIONNAY OUEST, 1390 Mionnay","gazole_maj":null,"gazole_prix":null,"sp95_maj":null,"sp95_prix":null,"e85_maj":null,"e85_prix":null,"gplc_maj":null,"gplc_prix":null,"e10_maj":"2024-03-01T01:00:00+01:00","e10_prix":2.169,"sp98_maj":"2024-03-01T01:00:00+01:00","sp98_prix":2.309,"pop":"A"},{"lat":48.6422,"lon":2.3286,"brand":null,"adresse":"70 ROUTE DE CORBEIL, 91700 Sainte-Genevi\u00e8ve-des-Bois","gazole_maj":"2024-03-01T01:01:00+01:00","gazole_prix":1.918,"sp95_maj":null,"sp95_prix":null,"e85_maj":null,"e85_prix":null,"gplc_maj":null,"gplc_prix":null,"e10_maj":"2024-03-01T01:01:00+01:00","e10_prix":1.945,"sp98_maj":"2024-03-01T01:01:00+01:00","sp98_prix":1.99,"pop":"R"},{"lat":47.5956,"lon":1.3011,"brand":null,"adresse":"1 rue Duguay Trouin, 41000 Blois","gazole_maj":"2024-02-26T09:38:47+01:00","gazole_prix":1.799,"sp95_maj":"2024-02-26T09:38:47+01:00","sp95_prix":1.839,"e85_maj":null,"e85_prix":null,"gplc_maj":null,"gplc_prix":null,"e10_maj":null,"e10_prix":null,"sp98_maj":"2024-02-23T10:39:12+01:00","sp98_prix":1.895,"pop":"R"},{"lat":48.648,"lon":2.189,"brand":null,"adresse":"VOIE EXP F6 LIEUDIT BEAUVERT, 91460 Marcoussis","gazole_maj":"2024-02-29T14:30:00+01:00","gazole_prix":1.859,"sp95_maj":null,"sp95_prix":null,"e85_maj":null,"e85_prix":null,"gplc_maj":null,"gplc_prix":null,"e10_maj":"2024-02-20T16:35:00+01:00","e10_prix":1.899,"sp98_maj":"2024-02-20T16:35:00+01:00","sp98_prix":2.019,"pop":"A"},{"lat":46.724,"lon":2.461,"brand":"Bricomarch\u00e9","adresse":"Z.A. les Noix Brul\u00e9es, 18200 Orval","gazole_maj":"2024-02-27T10:00:00+01:00","gazole_prix":1.805,"sp95_maj":null,"sp95_prix":null,"e85_maj":"2024-01-03T10:57:20+01:00","e85_prix":0.848,"gplc_maj":null,"gplc_prix":null,"e10_maj":"2024-02-19T10:15:00+01:00","e10_prix":1.829,"sp98_maj":null,"sp98_prix":null,"pop":"R"},{"lat":43.322,"lon":3.291,"brand":"Carrefour Market","adresse":"Ancienne Route de S\u00e9rignan, 34420 Villeneuve-l\u00e8s-B\u00e9ziers","gazole_maj":"2024-02-29T11:33:56+01:00","gazole_prix":1.725,"sp95_maj":"2024-02-23T11:58:26+01:00","sp95_prix":1.825,"e85_maj":null,"e85_prix":null,"gplc_maj":null,"gplc_prix":null,"e10_maj":null,"e10_prix":null,"sp98_maj":"2024-02-23T11:58:26+01:00","sp98_prix":1.879,"pop":"R"},{"lat":43.4193,"lon":5.2233,"brand":null,"adresse":"24 AVENUE DU MARECHAL JUIN, 13700 Marignane","gazole_maj":"2024-02-29T11:40:40+01:00","gazole_prix":1.775,"sp95_maj":null,"sp95_prix":null,"e85_maj":null,"e85_prix":null,"gplc_maj":null,"gplc_prix":null,"e10_maj":"2024-02-29T11:40:41+01:00","e10_prix":1.819,"sp98_maj":"2024-02-29T11:40:41+01:00","sp98_prix":1.892,"pop":"R"},{"lat":48.4859,"lon":3.4912,"brand":"Intermarch\u00e9","adresse":"47 Route de Bray, 10400 Nogent-sur-Seine","gazole_maj":"2024-02-27T10:29:33+01:00","gazole_prix":1.759,"sp95_maj":"2024-02-27T10:29:34+01:00","sp95_prix":1.819,"e85_maj":null,"e85_prix":null,"gplc_maj":null,"gplc_prix":null,"e10_maj":"2024-02-27T10:29:34+01:00","e10_prix":1.775,"sp98_maj":"2024-02-13T08:07:31+01:00","sp98_prix":1.869,"pop":"R"},{"lat":49.45,"lon":1.028,"brand":"Intermarch\u00e9","adresse":"Rue du Commandant Georges Ledru, 76380 Canteleu","gazole_maj":"2024-02-22T10:18:14+01:00","gazole_prix":1.768,"sp95_maj":null,"sp95_prix":null,"e85_maj":"2024-02-22T10:18:14+01:00","e85_prix":0.848,"gplc_maj":null,"gplc_prix":null,"e10_maj":"2024-02-26T17:35:08+01:00","e10_prix":1.796,"sp98_maj":"2024-02-29T17:32:39+01:00","sp98_prix":1.872,"pop":"R"},{"lat":47.9344,"lon":-1.6673,"brand":null,"adresse":"10 rue de Bel Air, 35320 Crevin","gazole_maj":"2024-02-16T10:13:33+01:00","gazole_prix":1.825,"sp95_maj":"2024-02-16T10:13:36+01:00","sp95_prix":1.845,"e85_maj":"2024-02-16T10:13:44+01:00","e85_prix":0.899,"gplc_maj":null,"gplc_prix":null,"e10_maj":null,"e10_prix":null,"sp98_maj":"2024-02-16T10:13:51+01:00","sp98_prix":1.875,"pop":"R"},{"lat":48.1193,"lon":-1.6038,"brand":null,"adresse":"50 rue de belle \u00e9pine et boulevard des m\u00e9tairies, 35510 Cesson-S\u00e9vign\u00e9","gazole_maj":"2024-02-27T10:16:32+01:00","gazole_prix":1.769,"sp95_maj":"2024-02-27T10:16:32+01:00","sp95_prix":1.827,"e85_maj":null,"e85_prix":null,"gplc_maj":null,"gplc_prix":null,"e10_maj":null,"e10_prix":null,"sp98_maj":"2024-02-27T10:16:32+01:00","sp98_prix":1.883,"pop":"R"},{"lat":44.881,"lon":-0.651,"brand":"Intermarch\u00e9","adresse":"170 Avenue du Taillan M\u00e9doc, 33320 Eysines","gazole_maj":"2024-02-26T09:10:50+01:00","gazole_prix":1.759,"sp95_maj":"2024-02-26T09:10:50+01:00","sp95_prix":1.825,"e85_maj":null,"e85_prix":null,"gplc_maj":null,"gplc_prix":null,"e10_maj":null,"e10_prix":null,"sp98_maj":"2024-02-26T09:10:51+01:00","sp98_prix":1.865,"pop":"R"},{"lat":47.439,"lon":0.699,"brand":"Intermarch\u00e9","adresse":"1 rue ren\u00e9 Cassin, 37390 Notre-Dame-d'O\u00e9","gazole_maj":"2024-02-23T09:54:49+01:00","gazole_prix":1.769,"sp95_maj":"2024-02-16T09:39:55+01:00","sp95_prix":1.82,"e85_maj":"2024-02-16T09:39:56+01:00","e85_prix":0.848,"gplc_maj":null,"gplc_prix":null,"e10_maj":null,"e10_prix":null,"sp98_maj":"2024-02-16T09:39:56+01:00","sp98_prix":1.859,"pop":"R"},{"lat":42.6995,"lon":3.0222,"brand":"Casino","adresse":"L' Esparrou Plage, 66140 Canet-en-Roussillon","gazole_maj":"2024-02-29T10:30:24+01:00","gazole_prix":1.743,"sp95_maj":null,"sp95_prix":null,"e85_maj":null,"e85_prix":null,"gplc_maj":null,"gplc_prix":null,"e10_maj":"2024-02-29T10:30:24+01:00","e10_prix":1.771,"sp98_maj":"2024-02-29T10:30:25+01:00","sp98_prix":1.862,"pop":"R"},{"lat":45.491,"lon":4.5583,"brand":"Intermarch\u00e9","adresse":"Rue du Plat du Gier, 42152 L'Horme","gazole_maj":"2024-02-28T10:22:56+01:00","gazole_prix":1.778,"sp95_maj":null,"sp95_prix":null,"e85_maj":"2024-01-05T08:10:20+01:00","e85_prix":0.848,"gplc_maj":null,"gplc_prix":null,"e10_maj":"2024-02-22T10:45:15+01:00","e10_prix":1.829,"sp98_maj":"2024-02-24T20:06:12+01:00","sp98_prix":1.909,"pop":"R"},{"lat":46.65,"lon":-0.753,"brand":null,"adresse":"7 RUE DE LA GARENNE, 85120 La Ch\u00e2taigneraie","gazole_maj":"2024-02-28T09:51:25+01:00","gazole_prix":1.755,"sp95_maj":"2024-02-28T09:51:26+01:00","sp95_prix":1.829,"e85_maj":null,"e85_prix":null,"gplc_maj":null,"gplc_prix":null,"e10_maj":"2024-02-28T09:51:26+01:00","e10_prix":1.789,"sp98_maj":null,"sp98_prix":null,"pop":"R"},{"lat":49.21,"lon":1.17,"brand":"Total","adresse":"4 place jean jaures, 27400 Louviers","gazole_maj":"2024-02-29T09:20:03+01:00","gazole_prix":1.829,"sp95_maj":null,"sp95_prix":null,"e85_maj":null,"e85_prix":null,"gplc_maj":"2024-02-29T09:20:03+01:00","gplc_prix":0.92,"e10_maj":"2024-02-29T09:20:03+01:00","e10_prix":1.869,"sp98_maj":"2024-02-29T09:20:03+01:00","sp98_prix":1.939,"pop":"R"},{"lat":49.7335,"lon":3.2451,"brand":null,"adresse":"Rond point de la victoire, 2480 Jussy","gazole_maj":"2024-02-20T11:24:20+01:00","gazole_prix":1.829,"sp95_maj":null,"sp95_prix":null,"e85_maj":"2024-02-20T11:24:21+01:00","e85_prix":0.934,"gplc_maj":null,"gplc_prix":null,"e10_maj":"2024-02-20T11:24:21+01:00","e10_prix":1.835,"sp98_maj":"2024-02-20T11:24:21+01:00","sp98_prix":1.933,"pop":"R"},{"lat":49.185,"lon":3.1214,"brand":null,"adresse":"12 rue de villers, 2460 La Fert\u00e9-Milon","gazole_maj":"2024-02-26T12:30:42+01:00","gazole_prix":1.799,"sp95_maj":"2024-02-14T13:18:02+01:00","sp95_prix":1.929,"e85_maj":"2024-02-14T13:18:02+01:00","e85_prix":0.999,"gplc_maj":null,"gplc_prix":null,"e10_maj":null,"e10_prix":null,"sp98_maj":"2024-02-14T13:18:02+01:00","sp98_prix":1.979,"pop":"R"},{"lat":45.7923,"lon":5.1321,"brand":"Intermarch\u00e9","adresse":"RUE DES DIAMANTS, 38280 Villette-d'Anthon","gazole_maj":"2024-02-28T08:57:54+01:00","gazole_prix":1.779,"sp95_maj":null,"sp95_prix":null,"e85_maj":"2024-02-28T08:57:55+01:00","e85_prix":0.849,"gplc_maj":null,"gplc_prix":null,"e10_maj":"2024-02-28T08:57:55+01:00","e10_prix":1.839,"sp98_maj":null,"sp98_prix":null,"pop":"R"},{"lat":48.7451,"lon":1.9218,"brand":"Auchan","adresse":"RN10, 78310 Coigni\u00e8res","gazole_maj":"2024-02-22T08:11:39+01:00","gazole_prix":1.823,"sp95_maj":"2024-02-22T08:11:40+01:00","sp95_prix":1.879,"e85_maj":null,"e85_prix":null,"gplc_maj":"2023-12-08T07:32:29+01:00","gplc_prix":0.93,"e10_maj":null,"e10_prix":null,"sp98_maj":"2024-02-22T08:11:40+01:00","sp98_prix":1.919,"pop":"R"},{"lat":47.356,"lon":5.033,"brand":null,"adresse":"Rue des pr\u00e9s potets, 21121 Fontaine-l\u00e8s-Dijon","gazole_maj":"2024-02-26T10:56:51+01:00","gazole_prix":1.769,"sp95_maj":null,"sp95_prix":null,"e85_maj":null,"e85_prix":null,"gplc_maj":null,"gplc_prix":null,"e10_maj":"2024-02-26T10:56:51+01:00","e10_prix":1.819,"sp98_maj":"2024-02-26T10:56:52+01:00","sp98_prix":1.899,"pop":"R"},{"lat":47.5288,"lon":3.0702,"brand":"Carrefour Contact","adresse":"Route de Cosne, 58310 Saint-Amand-en-Puisaye","gazole_maj":"2024-02-27T10:21:51+01:00","gazole_prix":1.809,"sp95_maj":"2024-02-27T10:21:51+01:00","sp95_prix":1.881,"e85_maj":"2023-12-11T09:50:17+01:00","e85_prix":0.999,"gplc_maj":null,"gplc_prix":null,"e10_maj":null,"e10_prix":null,"sp98_maj":null,"sp98_prix":null,"pop":"R"},{"lat":48.7287,"lon":2.4318,"brand":"Agip","adresse":"32 Avenue le Foll, 94290 Villeneuve-le-Roi","gazole_maj":"2024-02-25T09:43:54+01:00","gazole_prix":1.799,"sp95_maj":"2024-02-25T09:43:54+01:00","sp95_prix":1.848,"e85_maj":null,"e85_prix":null,"gplc_maj":null,"gplc_prix":null,"e10_maj":"2024-02-25T09:43:55+01:00","e10_prix":1.798,"sp98_maj":"2024-02-25T09:43:55+01:00","sp98_prix":1.878,"pop":"R"},{"lat":48.6807,"lon":5.8893,"brand":null,"adresse":"250 AVENUE DU COLONEL PECHOT, 54200 Toul","gazole_maj":"2024-02-29T16:21:17+01:00","gazole_prix":1.769,"sp95_maj":null,"sp95_prix":null,"e85_maj":"2024-02-06T11:15:20+01:00","e85_prix":0.849,"gplc_maj":null,"gplc_prix":null,"e10_maj":"2024-02-28T11:21:58+01:00","e10_prix":1.798,"sp98_maj":"2024-02-28T11:21:58+01:00","sp98_prix":1.876,"pop":"R"},{"lat":44.7458,"lon":4.745,"brand":"Total","adresse":"RD86 SORTIE SUD, 7250 Le Pouzin","gazole_maj":"2024-02-16T09:28:42+01:00","gazole_prix":1.894,"sp95_maj":"2024-02-16T09:28:42+01:00","sp95_prix":1.958,"e85_maj":null,"e85_prix":null,"gplc_maj":null,"gplc_prix":null,"e10_maj":null,"e10_prix":null,"sp98_maj":null,"sp98_prix":null,"pop":"R"},{"lat":43.617,"lon":2.244,"brand":null,"adresse":"185 av de roquecourbe, 81100 Castres","gazole_maj":null,"gazole_prix":null,"sp95_maj":null,"sp95_prix":null,"e85_maj":null,"e85_prix":null,"gplc_maj":null,"gplc_prix":null,"e10_maj":null,"e10_prix":null,"sp98_maj":null,"sp98_prix":null,"pop":"R"},{"lat":46.7535,"lon":3.1407,"brand":null,"adresse":"ROUTE NATIONALE 7 - LES BOULAISES, 58240 Chantenay-Saint-Imbert","gazole_maj":"2024-02-29T10:00:00+01:00","gazole_prix":1.812,"sp95_maj":null,"sp95_prix":null,"e85_maj":"2024-02-29T10:00:00+01:00","e85_prix":0.899,"gplc_maj":null,"gplc_prix":null,"e10_maj":"2024-02-29T10:00:00+01:00","e10_prix":1.829,"sp98_maj":"2024-02-29T10:00:00+01:00","sp98_prix":1.939,"pop":"R"},{"lat":47.745,"lon":7.412,"brand":null,"adresse":"66 ROUTE DE HABSHEIM, 68170 Rixheim","gazole_maj":"2024-03-01T01:01:00+01:00","gazole_prix":1.899,"sp95_maj":null,"sp95_prix":null,"e85_maj":"2024-03-01T01:01:00+01:00","e85_prix":0.919,"gplc_maj":null,"gplc_prix":null,"e10_maj":"2024-03-01T01:01:00+01:00","e10_prix":1.901,"sp98_maj":"2024-03-01T01:01:00+01:00","sp98_prix":1.99,"pop":"R"},{"lat":48.9339,"lon":2.39,"brand":null,"adresse":"AUTOROUTE A1 - AIRE DE LA COURNEUVE EST, 93120 La Courneuve","gazole_maj":"2024-02-29T10:00:00+01:00","gazole_prix":1.944,"sp95_maj":null,"sp95_prix":null,"e85_maj":"2024-02-29T10:00:00+01:00","e85_prix":0.999,"gplc_maj":null,"gplc_prix":null,"e10_maj":"2024-02-29T10:00:00+01:00","e10_prix":1.964,"sp98_maj":"2024-02-29T10:00:00+01:00","sp98_prix":1.99,"pop":"A"},{"lat":46.752,"lon":2.416,"brand":null,"adresse":"Autoroute A71 - La Gazonni\u00e8reSens Bourges \u2013 Clermond-Ferrand, 18200 Farges-Allichamps","gazole_maj":"2024-02-29T12:33:00+01:00","gazole_prix":1.994,"sp95_maj":null,"sp95_prix":null,"e85_maj":null,"e85_prix":null,"gplc_maj":"2024-02-29T12:33:00+01:00","gplc_prix":1.064,"e10_maj":"2024-02-29T12:33:00+01:00","e10_prix":2.024,"sp98_maj":"2024-02-29T12:33:00+01:00","sp98_prix":2.134,"pop":"A"},{"lat":43.856,"lon":5.018,"brand":"Total","adresse":"ROUTE D'AVIGNON, 84300 Cavaillon","gazole_maj":"2024-02-28T09:59:21+01:00","gazole_prix":1.907,"sp95_maj":null,"sp95_prix":null,"e85_maj":null,"e85_prix":null,"gplc_maj":null,"gplc_prix":null,"e10_maj":"2024-02-27T07:40:37+01:00","e10_prix":1.929,"sp98_maj":null,"sp98_prix":null,"pop":"R"},{"lat":47.474,"lon":0.777,"brand":null,"adresse":"AUTOROUTE A10 - AIRE TOURS VAL DE LOIRE, 37380 Monnaie","gazole_maj":"2024-02-29T10:00:00+01:00","gazole_prix":1.99,"sp95_maj":null,"sp95_prix":null,"e85_maj":"2024-02-29T10:00:00+01:00","e85_prix":0.999,"gplc_maj":"2024-02-29T10:00:00+01:00","gplc_prix":1.064,"e10_maj":"2024-02-29T10:00:00+01:00","e10_prix":1.99,"sp98_maj":"2024-02-29T10:00:00+01:00","sp98_prix":1.99,"pop":"A"},{"lat":47.282,"lon":0.6494,"brand":null,"adresse":"RUE DU VAL D'INDRE, 37260 Monts","gazole_maj":null,"gazole_prix":null,"sp95_maj":null,"sp95_prix":null,"e85_maj":null,"e85_prix":null,"gplc_maj":null,"gplc_prix":null,"e10_maj":null,"e10_prix":null,"sp98_maj":null,"sp98_prix":null,"pop":"R"},{"lat":45.835,"lon":0.837,"brand":"Avia","adresse":"8 RUE FRANCOIS MITTERRAND, 87600 Rochechouart","gazole_maj":"2024-02-15T09:21:36+01:00","gazole_prix":1.95,"sp95_maj":"2024-02-15T09:21:36+01:00","sp95_prix":1.96,"e85_maj":null,"e85_prix":null,"gplc_maj":null,"gplc_prix":null,"e10_maj":null,"e10_prix":null,"sp98_maj":"2024-02-15T09:21:37+01:00","sp98_prix":1.98,"pop":"R"},{"lat":49.1203,"lon":5.5084,"brand":null,"adresse":"AUTOROUTE A4 AIRE DE VERDUN SAINT NICOLAS NORD, 55160 Haudiomont","gazole_maj":"2024-02-28T13:10:00+01:00","gazole_prix":1.903,"sp95_maj":null,"sp95_prix":null,"e85_maj":null,"e85_prix":null,"gplc_maj":"2024-02-27T15:00:00+01:00","gplc_prix":1.065,"e10_maj":"2024-02-28T13:10:00+01:00","e10_prix":1.928,"sp98_maj":"2024-02-28T13:10:00+01:00","sp98_prix":2.001,"pop":"A"},{"lat":43.431,"lon":6.755,"brand":null,"adresse":"959 avenue du Mar\u00e9chal de Lattre de Tassigny, 83600 Fr\u00e9jus","gazole_maj":"2024-02-22T10:06:12+01:00","gazole_prix":1.799,"sp95_maj":null,"sp95_prix":null,"e85_maj":"2023-10-24T07:39:01+02:00","e85_prix":0.999,"gplc_maj":null,"gplc_prix":null,"e10_maj":"2024-02-17T10:32:49+01:00","e10_prix":1.859,"sp98_maj":"2024-02-26T08:19:02+01:00","sp98_prix":1.899,"pop":"R"},{"lat":46.5579,"lon":4.9834,"brand":null,"adresse":"20 RUE DU BOIS BERNOUX, 71290 Cuisery","gazole_maj":"2024-02-29T19:15:00+01:00","gazole_prix":1.769,"sp95_maj":null,"sp95_prix":null,"e85_maj":"2024-02-29T19:15:00+01:00","e85_prix":0.848,"gplc_maj":null,"gplc_prix":null,"e10_maj":"2024-02-29T19:15:00+01:00","e10_prix":1.828,"sp98_maj":"2024-02-29T19:15:00+01:00","sp98_prix":1.909,"pop":"R"},{"lat":48.664,"lon":5.888,"brand":"CORA","adresse":"678 Avenue du G\u00e9n\u00e9ral Bigeard, 54200 Toul","gazole_maj":"2024-02-27T09:42:50+01:00","gazole_prix":1.799,"sp95_maj":null,"sp95_prix":null,"e85_maj":null,"e85_prix":null,"gplc_maj":"2024-02-27T09:42:50+01:00","gplc_prix":0.989,"e10_maj":"2024-02-27T09:42:50+01:00","e10_prix":1.819,"sp98_maj":"2024-02-27T09:42:50+01:00","sp98_prix":1.895,"pop":"R"},{"lat":46.833,"lon":2.938,"brand":"Intermarch\u00e9","adresse":"Route de Saint Pierre Le Moutier, 18600 Sancoins","gazole_maj":"2024-02-28T10:00:00+01:00","gazole_prix":1.83,"sp95_maj":"2024-02-28T10:00:00+01:00","sp95_prix":1.9,"e85_maj":null,"e85_prix":null,"gplc_maj":null,"gplc_prix":null,"e10_maj":null,"e10_prix":null,"sp98_maj":"2024-02-28T10:00:00+01:00","sp98_prix":1.94,"pop":"R"},{"lat":43.883,"lon":-0.482,"brand":"Carrefour Market","adresse":"19 Boulevard Yves Mainguy, 40000 Mont-de-Marsan","gazole_maj":"2024-02-13T09:45:41+01:00","gazole_prix":1.799,"sp95_maj":null,"sp95_prix":null,"e85_maj":null,"e85_prix":null,"gplc_maj":null,"gplc_prix":null,"e10_maj":"2024-02-02T13:14:08+01:00","e10_prix":1.799,"sp98_maj":"2024-02-02T13:14:08+01:00","sp98_prix":1.899,"pop":"R"},{"lat":48.4289,"lon":-4.6137,"brand":null,"adresse":"RUE DU PONT DE BOIS, 29290 Saint-Renan","gazole_maj":"2024-02-24T10:09:38+01:00","gazole_prix":1.759,"sp95_maj":"2024-02-14T10:21:56+01:00","sp95_prix":1.815,"e85_maj":"2024-02-16T09:48:41+01:00","e85_prix":0.96,"gplc_maj":"2024-02-13T13:12:26+01:00","gplc_prix":0.949,"e10_maj":null,"e10_prix":null,"sp98_maj":"2024-02-21T10:47:28+01:00","sp98_prix":1.869,"pop":"R"},{"lat":48.944,"lon":2.681,"brand":"Carrefour","adresse":"Route Nationale 3, 77410 Claye-Souilly","gazole_maj":"2024-02-29T14:09:59+01:00","gazole_prix":1.837,"sp95_maj":"2024-02-29T14:10:00+01:00","sp95_prix":1.911,"e85_maj":"2024-02-29T14:10:00+01:00","e85_prix":0.984,"gplc_maj":null,"gplc_prix":null,"e10_maj":"2024-02-29T14:10:00+01:00","e10_prix":1.879,"sp98_maj":"2024-02-29T14:10:00+01:00","sp98_prix":1.966,"pop":"R"},{"lat":48.8689,"lon":2.4705,"brand":null,"adresse":"48-54 BOULEVARD THEOPHILE SUEUR, 93100 Montreuil","gazole_maj":"2024-03-01T01:01:00+01:00","gazole_prix":1.892,"sp95_maj":null,"sp95_prix":null,"e85_maj":"2024-03-01T01:01:00+01:00","e85_prix":0.899,"gplc_maj":null,"gplc_prix":null,"e10_maj":"2024-03-01T01:01:00+01:00","e10_prix":1.895,"sp98_maj":"2024-03-01T01:01:00+01:00","sp98_prix":1.976,"pop":"R"},{"lat":42.692,"lon":2.92,"brand":"Intermarch\u00e9","adresse":"4 Rue Louis Joseph Gay-Lussac, 66330 Cabestany","gazole_maj":"2024-02-20T09:59:06+01:00","gazole_prix":1.789,"sp95_maj":"2024-02-29T08:46:25+01:00","sp95_prix":1.911,"e85_maj":"2024-01-23T08:34:24+01:00","e85_prix":0.848,"gplc_maj":null,"gplc_prix":null,"e10_maj":"2024-02-29T08:47:30+01:00","e10_prix":1.865,"sp98_maj":null,"sp98_prix":null,"pop":"R"},{"lat":43.382,"lon":-1.649,"brand":null,"adresse":"26 - RN 618 AVENUE DE CHANTACO, 64500 Saint-Jean-de-Luz","gazole_maj":"2024-03-01T01:01:00+01:00","gazole_prix":1.883,"sp95_maj":null,"sp95_prix":null,"e85_maj":null,"e85_prix":null,"gplc_maj":null,"gplc_prix":null,"e10_maj":"2024-03-01T01:01:00+01:00","e10_prix":1.937,"sp98_maj":null,"sp98_prix":null,"pop":"R"},{"lat":48.767,"lon":2.368,"brand":"Esso Express","adresse":"264 Avenue de Stalingrad, 94550 Chevilly-Larue","gazole_maj":"2024-03-01T08:01:00+01:00","gazole_prix":1.852,"sp95_maj":null,"sp95_prix":null,"e85_maj":"2024-03-01T08:01:00+01:00","e85_prix":1.079,"gplc_maj":null,"gplc_prix":null,"e10_maj":"2024-03-01T08:01:00+01:00","e10_prix":1.881,"sp98_maj":"2024-03-01T08:01:00+01:00","sp98_prix":1.961,"pop":"R"},{"lat":48.986,"lon":2.238,"brand":"Esso Express","adresse":"9 Boulevard du Bel Air, 95130 Franconville","gazole_maj":"2024-03-01T08:01:00+01:00","gazole_prix":1.808,"sp95_maj":null,"sp95_prix":null,"e85_maj":null,"e85_prix":null,"gplc_maj":null,"gplc_prix":null,"e10_maj":"2024-03-01T08:01:00+01:00","e10_prix":1.839,"sp98_maj":"2024-03-01T08:01:00+01:00","sp98_prix":1.919,"pop":"R"},{"lat":48.2483,"lon":-4.416,"brand":null,"adresse":"9 ROUTE DE CHATEAULIN, 29160 Crozon","gazole_maj":"2024-02-22T15:36:46+01:00","gazole_prix":1.899,"sp95_maj":null,"sp95_prix":null,"e85_maj":null,"e85_prix":null,"gplc_maj":"2023-10-10T10:54:01+02:00","gplc_prix":1.099,"e10_maj":"2024-02-28T09:09:44+01:00","e10_prix":1.919,"sp98_maj":"2024-02-22T15:36:47+01:00","sp98_prix":1.99,"pop":"R"},{"lat":48.799,"lon":2.543,"brand":null,"adresse":"79 RUE DES FUSILLES DE CHATEAUBR, 94430 Chennevi\u00e8res-sur-Marne","gazole_maj":"2024-03-01T01:01:00+01:00","gazole_prix":1.83,"sp95_maj":null,"sp95_prix":null,"e85_maj":"2024-03-01T01:01:00+01:00","e85_prix":0.899,"gplc_maj":null,"gplc_prix":null,"e10_maj":"2024-03-01T01:01:00+01:00","e10_prix":1.826,"sp98_maj":"2024-03-01T01:01:00+01:00","sp98_prix":1.922,"pop":"R"},{"lat":43.601,"lon":0.042,"brand":"Intermarch\u00e9","adresse":"8 rue du Pin, 32160 Plaisance","gazole_maj":"2024-02-26T11:52:48+01:00","gazole_prix":1.799,"sp95_maj":"2024-02-21T10:15:13+01:00","sp95_prix":1.869,"e85_maj":null,"e85_prix":null,"gplc_maj":null,"gplc_prix":null,"e10_maj":"2024-02-21T10:15:14+01:00","e10_prix":1.829,"sp98_maj":"2024-02-21T10:15:14+01:00","sp98_prix":1.899,"pop":"R"},{"lat":49.465,"lon":4.112,"brand":"Total","adresse":"70 Rue Chantereine, 8190 Asfeld","gazole_maj":"2024-03-01T08:38:39+01:00","gazole_prix":1.885,"sp95_maj":null,"sp95_prix":null,"e85_maj":null,"e85_prix":null,"gplc_maj":null,"gplc_prix":null,"e10_maj":"2024-03-01T08:38:40+01:00","e10_prix":1.929,"sp98_maj":"2024-03-01T08:38:40+01:00","sp98_prix":1.99,"pop":"R"},{"lat":49.361,"lon":0.86,"brand":null,"adresse":"aire de bosgouet sud, 27310 Bosgouet","gazole_maj":"2024-02-27T13:27:41+01:00","gazole_prix":1.894,"sp95_maj":null,"sp95_prix":null,"e85_maj":"2024-02-27T13:27:41+01:00","e85_prix":1.3,"gplc_maj":"2024-02-27T13:27:42+01:00","gplc_prix":1.064,"e10_maj":"2024-02-27T13:27:42+01:00","e10_prix":1.912,"sp98_maj":"2024-02-27T13:27:42+01:00","sp98_prix":1.999,"pop":"A"},{"lat":43.9224,"lon":5.9142,"brand":null,"adresse":"Avenue Charles Richaud, 4700 Oraison","gazole_maj":null,"gazole_prix":null,"sp95_maj":null,"sp95_prix":null,"e85_maj":null,"e85_prix":null,"gplc_maj":null,"gplc_prix":null,"e10_maj":null,"e10_prix":null,"sp98_maj":null,"sp98_prix":null,"pop":"R"},{"lat":49.352,"lon":6.16,"brand":null,"adresse":"2 RUE STEPHEN LIEGEARD ROND POINT MERLIN, 57100 Thionville","gazole_maj":"2024-03-01T01:01:00+01:00","gazole_prix":1.908,"sp95_maj":null,"sp95_prix":null,"e85_maj":null,"e85_prix":null,"gplc_maj":"2024-03-01T01:01:00+01:00","gplc_prix":1.014,"e10_maj":"2024-03-01T01:01:00+01:00","e10_prix":1.922,"sp98_maj":"2024-03-01T01:01:00+01:00","sp98_prix":1.99,"pop":"R"},{"lat":46.866,"lon":4.58,"brand":null,"adresse":"69 RUE SAINT NICOLAS, 71490 Couches","gazole_maj":"2024-02-13T10:30:36+01:00","gazole_prix":1.859,"sp95_maj":"2024-02-13T10:30:36+01:00","sp95_prix":1.939,"e85_maj":null,"e85_prix":null,"gplc_maj":null,"gplc_prix":null,"e10_maj":null,"e10_prix":null,"sp98_maj":"2024-02-13T10:30:37+01:00","sp98_prix":1.969,"pop":"R"},{"lat":48.735,"lon":2.225,"brand":null,"adresse":"ROUTE NATIONALE 444, 91430 Igny","gazole_maj":"2024-02-28T14:30:00+01:00","gazole_prix":1.949,"sp95_maj":null,"sp95_prix":null,"e85_maj":null,"e85_prix":null,"gplc_maj":null,"gplc_prix":null,"e10_maj":"2024-02-20T14:50:00+01:00","e10_prix":1.949,"sp98_maj":"2024-02-20T14:50:00+01:00","sp98_prix":2.069,"pop":"R"},{"lat":48.678,"lon":2.199,"brand":null,"adresse":"1 AV DE L OCEANIE ZAC COURTABOEU, 91940 Les Ulis","gazole_maj":"2024-03-01T01:01:00+01:00","gazole_prix":1.835,"sp95_maj":null,"sp95_prix":null,"e85_maj":"2024-03-01T01:01:00+01:00","e85_prix":0.899,"gplc_maj":"2024-03-01T01:01:00+01:00","gplc_prix":0.969,"e10_maj":null,"e10_prix":null,"sp98_maj":null,"sp98_prix":null,"pop":"R"},{"lat":45.878,"lon":0.726,"brand":"Syst\u00e8me U","adresse":"ZA DE CHASSAT, 16150 Chabanais","gazole_maj":"2024-02-23T09:09:38+01:00","gazole_prix":1.801,"sp95_maj":null,"sp95_prix":null,"e85_maj":"2024-01-31T09:32:20+01:00","e85_prix":0.899,"gplc_maj":null,"gplc_prix":null,"e10_maj":"2024-02-23T09:09:39+01:00","e10_prix":1.817,"sp98_maj":"2024-02-23T09:09:39+01:00","sp98_prix":1.902,"pop":"R"},{"lat":50.271,"lon":1.669,"brand":"Simply Market","adresse":"28\/30 RUE PORTE DE BECRAY, 80120 Rue","gazole_maj":"2024-02-16T09:56:14+01:00","gazole_prix":1.798,"sp95_maj":null,"sp95_prix":null,"e85_maj":null,"e85_prix":null,"gplc_maj":null,"gplc_prix":null,"e10_maj":"2024-02-16T09:56:14+01:00","e10_prix":1.825,"sp98_maj":"2024-02-16T09:56:15+01:00","sp98_prix":1.937,"pop":"R"},{"lat":48.8467,"lon":-0.8872,"brand":"Carrefour Contact","adresse":"Rue Colbert, 14500 Vire Normandie","gazole_maj":"2024-02-20T13:17:48+01:00","gazole_prix":1.839,"sp95_maj":"2024-02-20T13:17:48+01:00","sp95_prix":1.889,"e85_maj":null,"e85_prix":null,"gplc_maj":null,"gplc_prix":null,"e10_maj":null,"e10_prix":null,"sp98_maj":null,"sp98_prix":null,"pop":"R"},{"lat":43.729,"lon":0.878,"brand":null,"adresse":"Avenue Jean Philip, 32120 Mauvezin","gazole_maj":null,"gazole_prix":null,"sp95_maj":null,"sp95_prix":null,"e85_maj":null,"e85_prix":null,"gplc_maj":null,"gplc_prix":null,"e10_maj":null,"e10_prix":null,"sp98_maj":null,"sp98_prix":null,"pop":"R"},{"lat":43.2846,"lon":2.5748,"brand":null,"adresse":"Avenue Ernest Ferroul, 11160 Peyriac-Minervois","gazole_maj":"2024-02-28T15:14:35+01:00","gazole_prix":1.73,"sp95_maj":"2024-01-31T09:46:56+01:00","sp95_prix":1.839,"e85_maj":null,"e85_prix":null,"gplc_maj":null,"gplc_prix":null,"e10_maj":null,"e10_prix":null,"sp98_maj":"2024-02-20T13:16:08+01:00","sp98_prix":1.895,"pop":"R"},{"lat":43.465,"lon":5.003,"brand":null,"adresse":"Cd 5 Quartier des Emplaniers, 13920 Saint-Mitre-les-Remparts","gazole_maj":"2024-02-08T09:35:26+01:00","gazole_prix":1.799,"sp95_maj":"2023-09-21T14:51:08+02:00","sp95_prix":1.979,"e85_maj":null,"e85_prix":null,"gplc_maj":null,"gplc_prix":null,"e10_maj":"2023-09-21T14:51:08+02:00","e10_prix":1.979,"sp98_maj":null,"sp98_prix":null,"pop":"R"},{"lat":45.7534,"lon":4.2197,"brand":"Intermarch\u00e9","adresse":"Route de Roanne RN 82, 42110 Civens","gazole_maj":"2024-02-26T09:05:00+01:00","gazole_prix":1.77,"sp95_maj":null,"sp95_prix":null,"e85_maj":"2024-02-15T08:59:00+01:00","e85_prix":0.849,"gplc_maj":null,"gplc_prix":null,"e10_maj":"2024-02-26T09:05:00+01:00","e10_prix":1.824,"sp98_maj":"2024-02-26T09:05:00+01:00","sp98_prix":1.906,"pop":"R"},{"lat":46.938,"lon":1.947,"brand":"Elan","adresse":"RN 151, 36100 Saint-Aoustrille","gazole_maj":"2024-02-20T11:53:42+01:00","gazole_prix":1.95,"sp95_maj":"2024-02-20T11:53:42+01:00","sp95_prix":1.97,"e85_maj":"2024-02-20T11:53:42+01:00","e85_prix":0.96,"gplc_maj":null,"gplc_prix":null,"e10_maj":null,"e10_prix":null,"sp98_maj":null,"sp98_prix":null,"pop":"R"},{"lat":42.7874,"lon":3.0349,"brand":"Syst\u00e8me U","adresse":"BOULEVARD DU 14 JUILLET, 66420 Le Barcar\u00e8s","gazole_maj":"2024-02-22T08:01:38+01:00","gazole_prix":1.789,"sp95_maj":null,"sp95_prix":null,"e85_maj":null,"e85_prix":null,"gplc_maj":null,"gplc_prix":null,"e10_maj":"2024-02-15T13:13:40+01:00","e10_prix":1.819,"sp98_maj":"2024-02-15T13:13:40+01:00","sp98_prix":1.899,"pop":"R"},{"lat":48.037,"lon":3.047,"brand":"Intermarch\u00e9","adresse":"RUE DES PATUREAUX, 45320 Courtenay","gazole_maj":"2024-02-23T16:00:00+01:00","gazole_prix":1.809,"sp95_maj":null,"sp95_prix":null,"e85_maj":null,"e85_prix":null,"gplc_maj":null,"gplc_prix":null,"e10_maj":"2024-02-23T16:00:00+01:00","e10_prix":1.849,"sp98_maj":"2024-02-09T16:00:00+01:00","sp98_prix":1.895,"pop":"R"},{"lat":46.543,"lon":-1.772,"brand":null,"adresse":"73 Rue du 8 Mai 1945, 85340 Les Sables-d'Olonne","gazole_maj":"2024-02-29T12:04:57+01:00","gazole_prix":1.729,"sp95_maj":null,"sp95_prix":null,"e85_maj":"2024-02-10T13:30:02+01:00","e85_prix":0.848,"gplc_maj":null,"gplc_prix":null,"e10_maj":"2024-02-29T12:04:58+01:00","e10_prix":1.745,"sp98_maj":"2024-02-29T12:04:58+01:00","sp98_prix":1.822,"pop":"R"},{"lat":43.531,"lon":1.535,"brand":"KAI","adresse":"CENTRE COMMERCIAL DE L'AUTAN, 31670 Lab\u00e8ge","gazole_maj":"2024-02-29T11:49:05+01:00","gazole_prix":1.909,"sp95_maj":"2024-02-29T11:49:05+01:00","sp95_prix":1.969,"e85_maj":null,"e85_prix":null,"gplc_maj":null,"gplc_prix":null,"e10_maj":"2024-02-29T11:49:06+01:00","e10_prix":1.929,"sp98_maj":null,"sp98_prix":null,"pop":"R"},{"lat":49.156,"lon":-0.45,"brand":"Ind\u00e9pendant sans enseigne","adresse":"62 Rue du G\u00e9n\u00e9ral Leclerc, 14790 Verson","gazole_maj":"2024-02-28T09:55:28+01:00","gazole_prix":1.867,"sp95_maj":null,"sp95_prix":null,"e85_maj":null,"e85_prix":null,"gplc_maj":null,"gplc_prix":null,"e10_maj":"2024-02-28T09:55:29+01:00","e10_prix":1.892,"sp98_maj":"2024-02-28T09:55:29+01:00","sp98_prix":1.99,"pop":"R"},{"lat":42.668,"lon":2.884,"brand":"Auchan","adresse":"AVENUE D'ESPAGNE, 66000 Perpignan","gazole_maj":"2024-02-22T09:01:20+01:00","gazole_prix":1.779,"sp95_maj":null,"sp95_prix":null,"e85_maj":null,"e85_prix":null,"gplc_maj":"2023-10-11T13:02:07+02:00","gplc_prix":0.959,"e10_maj":"2024-02-16T09:10:35+01:00","e10_prix":1.83,"sp98_maj":"2024-02-16T09:10:36+01:00","sp98_prix":1.918,"pop":"R"},{"lat":45.22,"lon":6.459,"brand":"Elan","adresse":"14 bis rue du Temple, 73140 Saint-Martin-d'Arc","gazole_maj":"2024-02-19T11:08:53+01:00","gazole_prix":1.956,"sp95_maj":null,"sp95_prix":null,"e85_maj":null,"e85_prix":null,"gplc_maj":null,"gplc_prix":null,"e10_maj":"2024-02-19T11:08:53+01:00","e10_prix":1.972,"sp98_maj":"2024-02-19T11:08:53+01:00","sp98_prix":1.99,"pop":"R"},{"lat":47.52,"lon":-0.88,"brand":"Intermarch\u00e9","adresse":"2 RUE DES CLORIES, 49370 Val d'Erdre-Auxence","gazole_maj":"2024-02-09T20:57:33+01:00","gazole_prix":1.79,"sp95_maj":null,"sp95_prix":null,"e85_maj":null,"e85_prix":null,"gplc_maj":null,"gplc_prix":null,"e10_maj":"2024-02-09T20:57:33+01:00","e10_prix":1.778,"sp98_maj":"2024-02-09T20:57:33+01:00","sp98_prix":1.846,"pop":"R"},{"lat":48.7806,"lon":2.1732,"brand":null,"adresse":"AUTOROUTE A86, 78350 Jouy-en-Josas","gazole_maj":"2024-03-01T01:01:00+01:00","gazole_prix":1.838,"sp95_maj":null,"sp95_prix":null,"e85_maj":"2024-03-01T01:01:00+01:00","e85_prix":0.899,"gplc_maj":null,"gplc_prix":null,"e10_maj":"2024-03-01T01:01:00+01:00","e10_prix":1.841,"sp98_maj":"2024-03-01T01:01:00+01:00","sp98_prix":1.933,"pop":"A"},{"lat":46.488,"lon":-0.398,"brand":"Syst\u00e8me U","adresse":"50, RUE DE LA GRANGE LUCAS, 79220 Champdeniers","gazole_maj":"2024-02-28T11:21:20+01:00","gazole_prix":1.729,"sp95_maj":null,"sp95_prix":null,"e85_maj":"2024-02-23T11:13:29+01:00","e85_prix":0.849,"gplc_maj":null,"gplc_prix":null,"e10_maj":"2024-02-23T11:13:29+01:00","e10_prix":1.749,"sp98_maj":"2024-02-23T11:13:29+01:00","sp98_prix":1.839,"pop":"R"},{"lat":43.919,"lon":2.029,"brand":null,"adresse":"23 avenue de Toulouse, 81150 Marssac-sur-Tarn","gazole_maj":"2024-02-28T08:20:06+01:00","gazole_prix":1.878,"sp95_maj":null,"sp95_prix":null,"e85_maj":null,"e85_prix":null,"gplc_maj":null,"gplc_prix":null,"e10_maj":"2024-02-28T08:20:07+01:00","e10_prix":1.914,"sp98_maj":"2024-02-28T08:20:08+01:00","sp98_prix":1.99,"pop":"R"},{"lat":44.542,"lon":-0.242,"brand":"Netto","adresse":"route de Bazas ZI dumes, 33210 Langon","gazole_maj":"2024-02-24T10:20:00+01:00","gazole_prix":1.764,"sp95_maj":"2024-02-22T11:07:55+01:00","sp95_prix":1.834,"e85_maj":null,"e85_prix":null,"gplc_maj":null,"gplc_prix":null,"e10_maj":"2024-02-22T11:07:56+01:00","e10_prix":1.775,"sp98_maj":"2024-02-28T10:28:50+01:00","sp98_prix":1.898,"pop":"R"},{"lat":50.046,"lon":2.148,"brand":"Intermarch\u00e9 Contact","adresse":"Rue Lucien Peyrat, 80850 Berteaucourt-les-Dames","gazole_maj":"2024-02-28T09:54:17+01:00","gazole_prix":1.763,"sp95_maj":null,"sp95_prix":null,"e85_maj":"2024-02-28T09:54:17+01:00","e85_prix":0.848,"gplc_maj":null,"gplc_prix":null,"e10_maj":"2024-02-28T09:54:17+01:00","e10_prix":1.798,"sp98_maj":"2024-02-28T09:54:18+01:00","sp98_prix":1.872,"pop":"R"},{"lat":47.87,"lon":5.33,"brand":null,"adresse":"FAUBOURG DE LA COLLINIERE, 52200 Langres","gazole_maj":"2024-03-01T01:01:00+01:00","gazole_prix":1.787,"sp95_maj":null,"sp95_prix":null,"e85_maj":"2024-03-01T01:01:00+01:00","e85_prix":0.899,"gplc_maj":"2024-03-01T01:01:00+01:00","gplc_prix":0.999,"e10_maj":"2024-03-01T01:01:00+01:00","e10_prix":1.841,"sp98_maj":"2024-03-01T01:01:00+01:00","sp98_prix":1.933,"pop":"R"},{"lat":43.571,"lon":5.355,"brand":null,"adresse":"65 avenue p\u00e8re Sylvain Giraud, 13510 \u00c9guilles","gazole_maj":null,"gazole_prix":null,"sp95_maj":null,"sp95_prix":null,"e85_maj":null,"e85_prix":null,"gplc_maj":null,"gplc_prix":null,"e10_maj":null,"e10_prix":null,"sp98_maj":null,"sp98_prix":null,"pop":"R"},{"lat":48.76,"lon":7.954,"brand":null,"adresse":"1 rue du coll\u00e8ge, 67410 Drusenheim","gazole_maj":"2024-02-27T01:02:00+01:00","gazole_prix":1.819,"sp95_maj":null,"sp95_prix":null,"e85_maj":null,"e85_prix":null,"gplc_maj":null,"gplc_prix":null,"e10_maj":"2024-02-16T01:06:00+01:00","e10_prix":1.839,"sp98_maj":"2024-02-16T01:06:00+01:00","sp98_prix":1.949,"pop":"R"},{"lat":49.8189,"lon":4.7409,"brand":"Carrefour Market","adresse":"Rue Parmentier, 8700 Nouzonville","gazole_maj":"2024-02-22T12:19:15+01:00","gazole_prix":1.839,"sp95_maj":"2024-02-15T09:39:33+01:00","sp95_prix":1.885,"e85_maj":null,"e85_prix":null,"gplc_maj":null,"gplc_prix":null,"e10_maj":null,"e10_prix":null,"sp98_maj":"2024-02-15T09:39:33+01:00","sp98_prix":1.945,"pop":"R"},{"lat":49.211,"lon":1.22,"brand":null,"adresse":"AUTOROUTE A13 - AIRE DE VIRONVAY NORD, 27400 Vironvay","gazole_maj":"2024-02-27T12:20:00+01:00","gazole_prix":1.94,"sp95_maj":null,"sp95_prix":null,"e85_maj":"2024-02-27T12:20:00+01:00","e85_prix":0.999,"gplc_maj":"2024-02-27T12:20:00+01:00","gplc_prix":1.054,"e10_maj":"2024-02-27T12:20:00+01:00","e10_prix":1.955,"sp98_maj":"2024-02-27T12:20:00+01:00","sp98_prix":2.045,"pop":"A"},